station_cd,station_g_cd,station_name,station_name_k,station_name_r,station_name_zh,station_name_ko,primary_station_number,secondary_station_number,extra_station_number,three_letter_code,line_cd,pref_cd,post,address,lon,lat,open_ymd,close_ymd,e_status,e_sort
100201,1130101,東京,トウキョウ,Tōkyō,东京,도쿄,,,,TYO,1002,13,100-0005,東京都千代田区丸の内一丁目9-1,139.766084,35.681382,1914-12-20,0000-00-00,0,100201
100202,1130103,品川,シナガワ,Shinagawa,品川,시나가와,,,,SGW,1002,13,108-0075,東京都港区港南二丁目1-78,139.74044,35.630152,1872-06-12,0000-00-00,0,100202
100203,1130604,新横浜,シンヨコハマ,Shin-Yokohama,新横滨,신요코하마,,,,,1002,14,222-0026,神奈川県横浜市港北区篠原町2937,139.617585,35.507456,1964-10-01,0000-00-00,0,100203
100204,1130116,小田原,オダワラ,Odawara,小田原,오다와라,,,,,1002,14,250-0045,神奈川県小田原市城山一丁目1-1,139.154904,35.25642,1920-10-21,0000-00-00,0,100204
100205,1130121,熱海,アタミ,Atami,热海,아타미,,,,,1002,22,413-0011,静岡県熱海市田原本町11-1,139.07776,35.103217,1925-03-25,0000-00-00,0,100205
100206,1150103,三島,ミシマ,Mishima,三岛,미시마,,,,,1002,22,411-0036,静岡県三島市一番町16-1,138.910627,35.127152,1934-12-01,0000-00-00,0,100206
100207,100207,新富士,シンフジ,Shin-Fuji,新富士,신후지,,,,,1002,22,416-0939,静岡県富士市川成島640,138.663382,35.142015,1988-03-13,0000-00-00,0,100207
100208,1150118,静岡,シズオカ,Shizuoka,静冈,시즈오카,,,,,1002,22,420-0851,静岡県静岡市葵区黒金町50,138.38884,34.97171,1889-02-01,0000-00-00,0,100208
100209,1150128,掛川,カケガワ,Kakegawa,挂川,가케가와,,,,,1002,22,436-0029,静岡県掛川市南一丁目1-1,138.014928,34.769758,1889-04-16,0000-00-00,0,100209
100210,1150201,浜松,ハママツ,Hamamatsu,滨松,하마마쓰,,,,,1002,22,430-0926,静岡県浜松市中区砂山町6-2,137.734442,34.703741,1888-09-01,0000-00-00,0,100210
100211,1141301,豊橋,トヨハシ,Toyohashi,丰桥,도요하시,,,,,1002,23,441-8019,愛知県豊橋市花田町字西宿,137.381651,34.762811,1888-09-01,0000-00-00,0,100211
100212,1150222,三河安城,ミカワアンジョウ,Mikawa-Anjō,三河安城,미카와안조,,,,,1002,23,446-0056,愛知県安城市三河安城町一丁目18-2,137.060662,34.96897,1988-03-13,0000-00-00,0,100212
100213,1141101,名古屋,ナゴヤ,Nagoya,名古屋,나고야,,,,,1002,23,450-0002,愛知県名古屋市中村区名駅一丁目1-4,136.881645,35.170686,1886-05-01,0000-00-00,0,100213
100214,3002102,岐阜羽島,ギフハシマ,Gifu-Hashima,岐阜羽島,기후하시마,,,,,1002,21,501-6257,岐阜県羽島市福寿町平方645-1,136.685822,35.316001,1964-10-01,0000-00-00,0,100214
100215,1141501,米原,マイバラ,Maibara,米原,마이바라,,,,,1002,25,521-0012,滋賀県米原市米原475,136.290488,35.314188,1889-07-01,0000-00-00,0,100215
100216,1160120,京都,キョウト,Kyōto,京都,교토,,,,,1002,26,600-8214,京都府京都市下京区東塩小路高倉町8-3,135.757755,34.985458,1877-02-06,0000-00-00,0,100216
100217,1160213,新大阪,シンオオサカ,Shin-Ōsaka,新大阪,신오사카,,,,,1002,27,532-0011,大阪府大阪市淀川区西中島五丁目16-1,135.500109,34.73348,1964-10-01,0000-00-00,0,100217
100301,1160213,新大阪,シンオオサカ,Shin-Ōsaka,新大阪,신오사카,,,,,1003,27,532-0011,大阪府大阪市淀川区西中島五丁目16-1,135.500109,34.73348,1964-10-01,0000-00-00,0,100301
100302,9963601,新神戸,シンコウベ,Shin-Kōbe,新神户,신코베,,,,,1003,28,650-0001,兵庫県神戸市中央区加納町一丁目3-1,135.195758,34.706417,1972-03-15,0000-00-00,0,100302
100303,1160811,西明石,ニシアカシ,Nishi-Akashi,西明石,니시아카시,,,,,1003,28,673-0005,兵庫県明石市小久保二丁目7-20,134.960542,34.666855,1944-04-01,0000-00-00,0,100303
100304,1160821,姫路,ヒメジ,Himeji,姫路,히메지,,,,,1003,28,670-0927,兵庫県姫路市駅前町188,134.690849,34.827642,1888-12-23,0000-00-00,0,100304
100305,1160905,相生,アイオイ,Aioi,相生,아이오이,,,,,1003,28,678-0006,兵庫県相生市本郷町1-10,134.473888,34.817955,1890-07-10,0000-00-00,0,100305
100306,1160917,岡山,オカヤマ,Okayama,冈山,오카야마,,,,,1003,33,700-0023,岡山県岡山市北区駅元町1番1号,133.918588,34.666369,1891-03-18,0000-00-00,0,100306
100307,1161007,新倉敷,シンクラシキ,Shin-Kurashiki,新仓敷,신쿠라시키,,,,,1003,33,710-0252,岡山県倉敷市玉島爪崎390-4,133.678671,34.56499,1891-07-14,0000-00-00,0,100307
100308,1161014,福山,フクヤマ,Fukuyama,福山,후쿠야마,,,,,1003,34,720-0066,広島県福山市三之丸町30-1,133.361432,34.489327,1891-09-11,0000-00-00,0,100308
100309,100309,新尾道,シンオノミチ,Shin-Onomichi,新尾道,신오노미치,,,,,1003,34,722-0022,広島県尾道市栗原町9381-4,133.190158,34.429859,1988-03-13,0000-00-00,0,100309
100310,1161020,三原,ミハラ,Mihara,三原,미하라,,,,,1003,34,723-0014,広島県三原市城町一丁目1-1,133.083572,34.399934,1894-06-10,0000-00-00,0,100310
100311,100311,東広島,ヒガシヒロシマ,Higashihiroshima,东广岛,히가시히로시마,,,,,1003,34,739-0026,広島県東広島市三永一丁目4-24,132.759762,34.389035,1988-03-13,0000-00-00,0,100311
100312,1161115,広島,ヒロシマ,Hiroshima,广岛,히로시마,,,,,1003,34,732-0822,広島県広島市南区松原町2-37,132.4758267,34.39823447,0000-00-00,0000-00-00,0,100312
100313,100313,新岩国,シンイワクニ,Shin-Iwakuni,新岩国,신이와쿠니,,,,,1003,35,741-0083,山口県岩国市御庄1055-1,132.149384,34.164672,1975-03-10,0000-00-00,0,100313
100314,1161216,徳山,トクヤマ,Tokuyama,德山,도쿠야마,,,,,1003,35,745-0034,山口県周南市御幸通二丁目28,131.8029,34.051555,1897-09-25,0000-00-00,0,100314
100315,1161224,新山口,シンヤマグチ,Shin-Yamaguchi,新山口,신야마구치,,,,,1003,35,754-0002,山口県山口市小郡下郷1294,131.397155,34.093061,1900-12-03,0000-00-00,0,100315
100316,1161230,厚狭,アサ,Asa,厚狭,아사,,,,,1003,35,757-0001,山口県山陽小野田市大字厚狭字沖田8-3,131.159965,34.053361,1900-12-03,0000-00-00,0,100316
100317,1161234,新下関,シンシモノセキ,Shin-Shimonoseki,新下关,신시모노세키,,,,,1003,35,751-0872,山口県下関市秋根南町一丁目11-1,130.948243,34.005615,1901-05-27,0000-00-00,0,100317
100318,1190205,小倉,コクラ,Kokura,小仓,고쿠라,,,,,1003,40,802-0001,福岡県北九州市小倉北区浅野一丁目,130.882466,33.887108,1891-04-01,0000-00-00,0,100318
100319,1190101,博多,ハカタ,Hakata,博多,하카타,,,,,1003,40,812-0012,福岡県福岡市博多区博多駅中央街1-1,130.420622,33.590002,1889-12-11,0000-00-00,0,100319
100401,1130101,東京,トウキョウ,Tōkyō,东京,도쿄,,,,TYO,1004,13,100-0005,東京都千代田区丸の内一丁目9-1,139.766084,35.681382,1914-12-20,0000-00-00,0,100401
100402,1130220,上野,ウエノ,Ueno,上野,우에노,,,,UEN,1004,13,110-0005,東京都台東区上野七丁目1-1,139.777254,35.713768,1883-07-28,0000-00-00,0,100402
100403,1131906,大宮,オオミヤ,Ōmiya,大宫,오미야,,,,OMY,1004,11,330-0853,埼玉県さいたま市大宮区錦町630,139.624,35.906206,1885-03-16,0000-00-00,0,100403
100404,1131918,小山,オヤマ,Oyama,小山,오야마,,,,,1004,9,323-0025,栃木県小山市城山町三丁目3-22,139.80685,36.3142,0000-00-00,0000-00-00,0,100404
100405,1131923,宇都宮,ウツノミヤ,Utsunomiya,宇都宮,우쓰노미야,,,,,1004,9,321-0965,栃木県宇都宮市川向町1-23,139.898283,36.558701,0000-00-00,0000-00-00,0,100405
100406,1131932,那須塩原,ナスシオバラ,Nasushiobara,那须盐原,나스시오바라,,,,,1004,9,329-3153,栃木県那須塩原市大原間555,140.020514,36.931772,0000-00-00,0000-00-00,0,100406
100407,1123106,新白河,シンシラカワ,Shin-Shirakawa,新白河,신시라카와,,,,,1004,7,961-8052,福島県西白河郡西郷村字道南東,140.188998,37.123281,1944-10-11,0000-00-00,0,100407
100408,1123114,郡山,コオリヤマ,Kōriyama,郡山,고리야마,,,,,1004,7,963-8003,福島県郡山市字燧田195,140.388412,37.397983,1887-07-16,0000-00-00,0,100408
100409,1123124,福島,フクシマ,Fukushima,福岛,후쿠시마,,,,,1004,7,960-8031,福島県福島市栄町1-1,140.458724,37.754311,1887-12-15,0000-00-00,0,100409
100410,100410,白石蔵王,シロイシザオウ,Shiroishizaō,白石藏王,시로이시자오,,,,,1004,4,989-0213,宮城県白石市大鷹沢三沢字桜田11-1,140.633035,37.995485,1982-06-23,0000-00-00,0,100410
100411,1123143,仙台,センダイ,Sendai,仙台,센다이,,,,,1004,4,980-0021,宮城県仙台市青葉区中央一丁目1-1,140.882244,38.260286,1887-12-15,0000-00-00,0,100411
100412,1122104,古川,フルカワ,Furukawa,古川,후루카와,,,,,1004,4,989-6162,宮城県大崎市古川駅前大通一丁目7-35,140.967832,38.57092,1913-04-20,0000-00-00,0,100412
100413,100413,くりこま高原,クリコマコウゲン,Kurikoma-Kōgen,栗驹高原,구리코마 코겐,,,,,1004,4,989-5612,宮城県栗原市志波姫新熊谷284,141.071785,38.74893,1990-03-10,0000-00-00,0,100413
100414,1123166,一ノ関,イチノセキ,Ichinoseki,一之关,이치노세키,,,,,1004,3,021-0867,岩手県一関市駅前67-1,141.13889,38.92608,1890-04-16,0000-00-00,0,100414
100415,100415,水沢江刺,ミズサワエサシ,Mizusawaesashi,水泽江刺,미즈사와에사시,,,,,1004,3,023-0104,岩手県奥州市水沢区羽田町駅前一丁目185,141.188803,39.145194,1985-03-14,0000-00-00,0,100415
100416,1123174,北上,キタカミ,Kitakami,北上,기타카미,,,,,1004,3,024-0061,岩手県北上市大通り一丁目1-2,141.122598,39.282229,1890-11-01,0000-00-00,0,100416
100417,1120903,新花巻,シンハナマキ,Shin-Hanamaki,新花卷,신하나마키,,,,,1004,3,025-0011,岩手県花巻市矢沢第10地割87-7,141.173715,39.406453,1985-03-14,0000-00-00,0,100417
100418,1123185,盛岡,モリオカ,Morioka,盛冈,모리오카,,,,,1004,3,020-0034,岩手県盛岡市盛岡駅前通1-48,141.136369,39.701683,1890-11-01,0000-00-00,0,100418
100419,9920509,いわて沼宮内,イワテヌマクナイ,Iwate-Numakunai,岩手沼宫内,이와테누마쿠나이,,,,,1004,3,028-4303,岩手県岩手郡岩手町大字江刈内第6地割1-15,141.217655,39.960853,1891-09-01,0000-00-00,0,100419
100420,9920515,二戸,ニノヘ,Ninohe,二户,니노헤,,,,,1004,3,028-6103,岩手県二戸市石切所字森合63-68,141.285655,40.259881,1891-12-20,0000-00-00,0,100420
100421,1120601,八戸,ハチノヘ,Hachinohe,八户,하치노헤,,,,,1004,2,039-1101,青森県八戸市大字尻内町字館田2-2,141.431468,40.509161,0000-00-00,0000-00-00,0,100421
100422,100422,七戸十和田,シチノヘトワダ,Shichinohe-Towada,七戸十和田,시치노헤토와다,,,,,1004,2,039-2501,青森県上北郡七戸町字荒熊内,141.153948,40.719917,2010-12-04,0000-00-00,0,100422
100423,1120265,新青森,シンアオモリ,Shin-Aomori,新青森,신아오모리,,,,,1004,2,038-0003,青森県青森市大字石江字高間140-2,140.693472,40.8275,2016-03-26,0000-00-00,0,100423
100501,1130101,東京,トウキョウ,Tōkyō,东京,도쿄,,,,TYO,1005,13,100-0005,東京都千代田区丸の内一丁目9-1,139.766084,35.681382,1914-12-20,0000-00-00,0,100501
100502,1130220,上野,ウエノ,Ueno,上野,우에노,,,,UEN,1005,13,110-0005,東京都台東区上野七丁目1-1,139.777254,35.713768,1883-07-28,0000-00-00,0,100502
100503,1131906,大宮,オオミヤ,Ōmiya,大宫,오미야,,,,OMY,1005,11,330-0853,埼玉県さいたま市大宮区錦町630,139.624,35.906206,1885-03-16,0000-00-00,0,100503
100504,1132316,熊谷,クマガヤ,Kumagaya,熊谷,구마가야,,,,,1005,11,360-0037,埼玉県熊谷市筑波二丁目112,139.389942,36.139702,1883-07-28,0000-00-00,0,100504
100505,100505,本庄早稲田,ホンジョウワセダ,Honjōwaseda,本庄早稻田,혼조와세다,,,,,1005,11,367-0031,埼玉県本庄市北堀字山ノ根2070,139.179739,36.218575,2004-03-13,0000-00-00,0,100505
100506,1131816,高崎,タカサキ,Takasaki,高崎,다카사키,,,,,1005,10,370-0849,群馬県高崎市八島町222,139.013057,36.322356,1884-05-01,0000-00-00,0,100506
100507,100507,上毛高原,ジョウモウコウゲン,Jōmō-Kōgen,上毛高原,조모 고원,,,,,1005,10,379-1313,群馬県利根郡みなかみ町月夜野1756,138.977579,36.693128,1982-11-15,0000-00-00,0,100507
100508,1134220,越後湯沢,エチゴユザワ,Echigo-Yuzawa,越后汤泽,에치고유자와,,,,,1005,15,949-6101,新潟県南魚沼郡湯沢町大字湯沢主水2427-1,138.809891,36.93611,1925-11-01,0000-00-00,0,100508
100509,1134227,浦佐,ウラサ,Urasa,浦佐,우라사,,,,,1005,15,949-7302,新潟県南魚沼市浦佐719-2,138.922703,37.167591,1923-09-01,0000-00-00,0,100509
100510,1134236,長岡,ナガオカ,Nagaoka,长冈,나가오카,,,,,1005,15,940-0061,新潟県長岡市城内町二丁目794-4,138.853927,37.447787,1898-06-16,0000-00-00,0,100510
100511,1141006,燕三条,ツバメサンジョウ,Tsubamesanjō,燕三条,쓰바메산조,,,,,1005,15,955-0093,新潟県三条市下須頃497,138.93873,37.647752,1982-11-15,0000-00-00,0,100511
100512,1140442,新潟,ニイガタ,Niigata,新泻,니가타,,,,,1005,15,950-0086,新潟県新潟市中央区花園一丁目1-1,139.061883,37.912027,1904-05-03,0000-00-00,0,100512
100601,1134220,越後湯沢,エチゴユザワ,Echigo-Yuzawa,越后汤泽,에치고유자와,,,,,1006,15,949-6101,新潟県南魚沼郡湯沢町大字湯沢主水2427-1,138.809891,36.93611,1925-11-01,0000-00-00,0,100601
100602,100602,ガーラ湯沢,ガーラユザワ,GALA Yuzawa,Gala汤泽,갈라유자와,,,,,1006,15,949-6101,新潟県南魚沼郡湯沢町大字湯沢1039-2,138.799528,36.950889,1990-12-20,0000-00-00,0,100602
100701,1130101,東京,トウキョウ,Tōkyō,东京,도쿄,,,,TYO,1007,13,100-0005,東京都千代田区丸の内一丁目9-1,139.766084,35.681382,1914-12-20,0000-00-00,3,100701
100702,1130220,上野,ウエノ,Ueno,上野,우에노,,,,UEN,1007,13,110-0005,東京都台東区上野七丁目1-1,139.777254,35.713768,1883-07-28,0000-00-00,3,100702
100703,1131906,大宮,オオミヤ,Ōmiya,大宫,오미야,,,,OMY,1007,11,330-0853,埼玉県さいたま市大宮区錦町630,139.624,35.906206,1885-03-16,0000-00-00,3,100703
100704,1131918,小山,オヤマ,Oyama,小山,오야마,,,,,1007,9,323-0025,栃木県小山市城山町三丁目3-22,139.80685,36.3142,0000-00-00,0000-00-00,3,100704
100705,1131923,宇都宮,ウツノミヤ,Utsunomiya,宇都宮,우쓰노미야,,,,,1007,9,321-0965,栃木県宇都宮市川向町1-23,139.898283,36.558701,0000-00-00,0000-00-00,3,100705
100706,1131932,那須塩原,ナスシオバラ,Nasushiobara,那须盐原,나스시오바라,,,,,1007,9,329-3153,栃木県那須塩原市大原間555,140.020514,36.931772,0000-00-00,0000-00-00,3,100706
100707,1123106,新白河,シンシラカワ,Shin-Shirakawa,新白河,신시라카와,,,,,1007,7,961-8052,福島県西白河郡西郷村字道南東,140.188998,37.123281,1944-10-11,0000-00-00,3,100707
100708,1123114,郡山,コオリヤマ,Kōriyama,郡山,고리야마,,,,,1007,7,963-8003,福島県郡山市字燧田195,140.388412,37.397983,1887-07-16,0000-00-00,3,100708
100709,1123124,福島,フクシマ,Fukushima,福岛,후쿠시마,,,,,1007,7,960-8031,福島県福島市栄町1-1,140.458724,37.754311,1887-12-15,0000-00-00,0,100709
100710,1121609,米沢,ヨネザワ,Yonezawa,米泽,요네자와,,,,,1007,6,992-0027,山形県米沢市駅前一丁目1-43,140.128087,37.909639,1899-05-15,0000-00-00,0,100710
100711,1121611,高畠,タカハタ,Takahata,高畠,다카하타,,,,,1007,6,999-2173,山形県東置賜郡高畠町大字山崎200-1,140.153149,37.992595,1900-04-21,0000-00-00,0,100711
100712,1121612,赤湯,アカユ,Akayu,赤汤,아카유,,,,,1007,6,999-2241,山形県南陽市郡山番外地,140.149192,38.047214,1900-04-21,0000-00-00,0,100712
100713,1121615,かみのやま温泉,カミノヤマオンセン,Kaminoyamaonsen,上山温泉,가미노야마온센,,,,,1007,6,999-3134,山形県上山市矢来一丁目1-1,140.278431,38.152093,1901-02-15,0000-00-00,0,100713
100714,1121618,山形,ヤマガタ,Yamagata,山形,야마가타,,,,,1007,6,990-0039,山形県山形市香澄町一丁目1-1,140.327536,38.248645,1901-04-11,0000-00-00,0,100714
100715,1121624,天童,テンドウ,Tendō,天童,덴도,,,,,1007,6,994-0034,山形県天童市本町一丁目1-1,140.369612,38.36002,1901-08-23,0000-00-00,0,100715
100716,1121627,さくらんぼ東根,サクランボヒガシネ,Sakurambohigashine,樱桃东根,사쿠란보히가시네,,,,,1007,6,999-3720,山形県東根市さくらんぼ駅前一丁目1-1,140.381055,38.428363,1999-12-04,0000-00-00,0,100716
100717,1121629,村山,ムラヤマ,Murayama,村山,무라야마,,,,,1007,6,995-0033,山形県村山市楯岡新町一丁目10-1,140.386355,38.477153,1901-08-23,0000-00-00,0,100717
100718,1121631,大石田,オオイシダ,Oishida,大石田,오이시다,,,,,1007,6,999-4111,山形県北村山郡大石田町大字大石田乙585,140.375269,38.595724,1901-10-21,0000-00-00,0,100718
100719,1120201,新庄,シンジョウ,Shinjō,新庄,신조,,,,,1007,6,996-0024,山形県新庄市多門町1-1,140.305792,38.762249,1903-06-11,0000-00-00,0,100719
100801,1130101,東京,トウキョウ,Tōkyō,东京,도쿄,,,,TYO,1008,13,100-0005,東京都千代田区丸の内一丁目9-1,139.766084,35.681382,1914-12-20,0000-00-00,3,100801
100802,1130220,上野,ウエノ,Ueno,上野,우에노,,,,UEN,1008,13,110-0005,東京都台東区上野七丁目1-1,139.777254,35.713768,1883-07-28,0000-00-00,3,100802
100803,1131906,大宮,オオミヤ,Ōmiya,大宫,오미야,,,,OMY,1008,11,330-0853,埼玉県さいたま市大宮区錦町630,139.624,35.906206,1885-03-16,0000-00-00,3,100803
100804,1131918,小山,オヤマ,Oyama,小山,오야마,,,,,1008,9,323-0025,栃木県小山市城山町三丁目3-22,139.80685,36.3142,0000-00-00,0000-00-00,3,100804
100805,1131923,宇都宮,ウツノミヤ,Utsunomiya,宇都宮,우쓰노미야,,,,,1008,9,321-0965,栃木県宇都宮市川向町1-23,139.898283,36.558701,0000-00-00,0000-00-00,3,100805
100806,1131932,那須塩原,ナスシオバラ,Nasushiobara,那须盐原,나스시오바라,,,,,1008,9,329-3153,栃木県那須塩原市大原間555,140.020514,36.931772,0000-00-00,0000-00-00,3,100806
100807,1123106,新白河,シンシラカワ,Shin-Shirakawa,新白河,신시라카와,,,,,1008,7,961-8052,福島県西白河郡西郷村字道南東,140.188998,37.123281,1944-10-11,0000-00-00,3,100807
100808,1123114,郡山,コオリヤマ,Kōriyama,郡山,고리야마,,,,,1008,7,963-8003,福島県郡山市字燧田195,140.388412,37.397983,1887-07-16,0000-00-00,3,100808
100809,1123124,福島,フクシマ,Fukushima,福岛,후쿠시마,,,,,1008,7,960-8031,福島県福島市栄町1-1,140.458724,37.754311,1887-12-15,0000-00-00,3,100809
100810,100410,白石蔵王,シロイシザオウ,Shiroishizaō,白石藏王,시로이시자오,,,,,1008,4,989-0213,宮城県白石市大鷹沢三沢字桜田11-1,140.633035,37.995485,1982-06-23,0000-00-00,3,100810
100811,1123143,仙台,センダイ,Sendai,仙台,센다이,,,,,1008,4,980-0021,宮城県仙台市青葉区中央一丁目1-1,140.882244,38.260286,1887-12-15,0000-00-00,3,100811
100812,1122104,古川,フルカワ,Furukawa,古川,후루카와,,,,,1008,4,989-6162,宮城県大崎市古川駅前大通一丁目7-35,140.967832,38.57092,1913-04-20,0000-00-00,3,100812
100813,100413,くりこま高原,クリコマコウゲン,Kurikoma-Kōgen,栗驹高原,구리코마 코겐,,,,,1008,4,989-5612,宮城県栗原市志波姫新熊谷284,141.071785,38.74893,1990-03-10,0000-00-00,3,100813
100814,1123166,一ノ関,イチノセキ,Ichinoseki,一之关,이치노세키,,,,,1008,3,021-0867,岩手県一関市駅前67-1,141.13889,38.92608,1890-04-16,0000-00-00,3,100814
100815,100415,水沢江刺,ミズサワエサシ,Mizusawaesashi,水泽江刺,미즈사와에사시,,,,,1008,3,023-0104,岩手県奥州市水沢区羽田町駅前一丁目185,141.188803,39.145194,1985-03-14,0000-00-00,3,100815
100816,1123174,北上,キタカミ,Kitakami,北上,기타카미,,,,,1008,3,024-0061,岩手県北上市大通り一丁目1-2,141.122598,39.282229,1890-11-01,0000-00-00,3,100816
100817,1120903,新花巻,シンハナマキ,Shin-Hanamaki,新花卷,신하나마키,,,,,1008,3,025-0011,岩手県花巻市矢沢第10地割87-7,141.173715,39.406453,1985-03-14,0000-00-00,3,100817
100818,1123185,盛岡,モリオカ,Morioka,盛冈,모리오카,,,,,1008,3,020-0034,岩手県盛岡市盛岡駅前通1-48,141.136369,39.701683,1890-11-01,0000-00-00,0,100818
100819,1121104,雫石,シズクイシ,Shizukuishi,雫石,시즈쿠이시,,,,,1008,3,020-0524,岩手県岩手郡雫石町寺の下46-3,140.974848,39.689352,1921-06-25,0000-00-00,0,100819
100820,1121107,田沢湖,タザワコ,Tazawako,田泽湖,다자와코,,,,,1008,5,014-1201,秋田県仙北市田沢湖生保内字男坂68,140.722419,39.700272,1923-08-31,0000-00-00,0,100820
100821,1121111,角館,カクノダテ,Kakunodate,角馆,가쿠노다테,,,,,1008,5,014-0368,秋田県仙北市角館町中菅沢14,140.570988,39.591716,1921-07-30,0000-00-00,0,100821
100822,1120220,大曲,オオマガリ,Ōmagari,大曲,오마가리,,,,,1008,5,014-0027,秋田県大仙市大曲通町6-1,140.479732,39.465454,1904-12-21,0000-00-00,0,100822
100823,1120228,秋田,アキタ,Akita,秋田,아키타,,,,,1008,5,010-0001,秋田県秋田市中通七丁目1-2,140.129743,39.716845,1902-10-21,0000-00-00,0,100823
100901,1130101,東京,トウキョウ,Tōkyō,东京,도쿄,,,,TYO,1009,13,100-0005,東京都千代田区丸の内一丁目9-1,139.766084,35.681382,1914-12-20,0000-00-00,0,100901
100902,1130220,上野,ウエノ,Ueno,上野,우에노,,,,UEN,1009,13,110-0005,東京都台東区上野七丁目1-1,139.777254,35.713768,1883-07-28,0000-00-00,0,100902
100903,1131906,大宮,オオミヤ,Ōmiya,大宫,오미야,,,,OMY,1009,11,330-0853,埼玉県さいたま市大宮区錦町630,139.624,35.906206,1885-03-16,0000-00-00,0,100903
100904,1132316,熊谷,クマガヤ,Kumagaya,熊谷,구마가야,,,,,1009,11,360-0037,埼玉県熊谷市筑波二丁目112,139.389942,36.139702,1883-07-28,0000-00-00,0,100904
100905,100505,本庄早稲田,ホンジョウワセダ,Honjōwaseda,本庄早稻田,혼조와세다,,,,,1009,11,367-0031,埼玉県本庄市北堀字山ノ根2070,139.179739,36.218575,2004-03-13,0000-00-00,0,100905
100906,1131816,高崎,タカサキ,Takasaki,高崎,다카사키,,,,,1009,10,370-0849,群馬県高崎市八島町222,139.013057,36.322356,1884-05-01,0000-00-00,0,100906
100907,100907,安中榛名,アンナカハルナ,Annakaharuna,安中榛名,안나카하루나,,,,,1009,10,379-0102,群馬県安中市東上秋間2552-5,138.849589,36.362408,1997-10-01,0000-00-00,0,100907
100908,9940301,軽井沢,カルイザワ,Karuizawa,轻井泽,가루이자와,,,,,1009,20,389-0102,長野県北佐久郡軽井沢町大字軽井沢1178,138.635062,36.34255,0000-00-00,0000-00-00,0,100908
100909,1140125,佐久平,サクダイラ,Sakudaira,佐久平,사쿠다이라,,,,,1009,20,385-0028,長野県佐久市佐久平駅東1-1,138.464339,36.277898,1997-10-01,0000-00-00,0,100909
100910,9940311,上田,ウエダ,Ueda,上田,우에다,,,,,1009,20,386-0025,長野県上田市天神一丁目1887-17,138.249736,36.396498,1888-08-15,0000-00-00,0,100910
100911,1140305,長野,ナガノ,Nagano,长野,나가노,,,,,1009,20,380-0921,長野県長野市大字栗田1038,138.188686,36.643,1888-05-01,0000-00-00,0,100911
100912,1140710,飯山,イイヤマ,Iiyama,饭山,이야마,,,,,1009,20,389-2253,長野県飯山市大字飯山枡ノ浦,138.358596,36.84562,2015-03-14,0000-00-00,0,100912
100913,1140317,上越妙高,ジョウエツミョウコウ,Jōetsumyōkō,上越妙高,조에쓰묘코,,,,,1009,15,943-0861,新潟県上越市大和五丁目,138.2484867,37.08135716,2015-03-14,0000-00-00,0,100913
100914,1140516,糸魚川,イトイガワ,Itoigawa,糸鱼川,이토이가와,,,,,1009,15,941-0061,新潟県糸魚川市大町一丁目7番10号,137.8615099,37.04330468,2015-03-14,0000-00-00,0,100914
100915,100915,黒部宇奈月温泉,クロベウナヅキオンセン,Kurobe-Unazukionsen,黑部宇奈月温泉,구로베우나즈키온센,,,,,1009,16,938-0802,富山県黒部市若栗,137.4801774,36.87316273,2015-03-14,0000-00-00,0,100915
100916,1140501,富山,トヤマ,Toyama,富山,도야마,,,,,1009,16,930-0001,富山県富山市明輪町1-227,137.213141,36.701653,2015-03-14,0000-00-00,0,100916
100917,100917,新高岡,シンタカオカ,Shin-Takaoka,新高冈,신타카오카,,,,,1009,16,933-0852,富山県高岡市下黒田1872番地,137.010459,36.727004,2015-03-14,0000-00-00,0,100917
100918,1141543,金沢,カナザワ,Kanazawa,金泽,가나자와,,,,,1009,17,920-0023,石川県金沢市北安江町,136.648166,36.578117,2015-03-14,0000-00-00,0,100918
101001,1190101,博多,ハカタ,Hakata,博多,하카타,,,,,1010,40,812-0012,福岡県福岡市博多区博多駅中央街1-1,130.420622,33.590002,1889-12-11,0000-00-00,0,101001
101002,1190542,新鳥栖,シントス,Shin-Tosu,新鸟栖,신토스,,,,,1010,41,841-0071,佐賀県鳥栖市原古賀町字一本松220-2,130.491194,33.370194,2011-03-12,0000-00-00,0,101002
101003,1190318,久留米,クルメ,Kurume,久留米,구루메,,,,,1010,40,830-0022,福岡県久留米市城南町2-21,130.501888,33.320409,1890-03-01,0000-00-00,0,101003
101004,1190322,筑後船小屋,チクゴフナゴヤ,Chikugo-Funagoya,筑后船小屋,지쿠고후나고야,,,,,1010,40,833-0015,福岡県筑後市大字津島字東1088-2,130.492389,33.177917,1928-07-20,0000-00-00,0,101004
101005,101005,新大牟田,シンオオムタ,Shin-Ōmuta,新大牟田,신오무타,,,,,1010,40,837-0913,福岡県大牟田市大字岩本2509,130.48875,33.07125,2011-03-12,0000-00-00,0,101005
101006,101006,新玉名,シンタマナ,Shin-Tamana,新玉名,신타마나,,,,,1010,43,865-0005,熊本県玉名市玉名1229-3,130.573556,32.9425,2011-03-12,0000-00-00,0,101006
101007,1190341,熊本,クマモト,Kumamoto,熊本,구마모토,,,,,1010,43,860-0047,熊本県熊本市春日三丁目15-1,130.689401,32.790065,1891-07-01,0000-00-00,0,101007
101008,1190348,新八代,シンヤツシロ,Shin-Yatsushiro,新八代,신야쓰시로,,,,,1010,43,866-0824,熊本県八代市上日置町4774-2,130.634938,32.517843,2004-03-13,0000-00-00,0,101008
101009,101009,新水俣,シンミナマタ,Shin-Minamata,新水俣,신미나마타,,,,,1010,43,867-0002,熊本県水俣市初野305,130.42882,32.210736,2004-03-13,0000-00-00,0,101009
101010,101010,出水,イズミ,Izumi,出水,이즈미,,,,,1010,46,899-0203,鹿児島県出水市上鯖淵715-6,130.35823,32.089586,1923-10-15,0000-00-00,0,101010
101011,1190401,川内,センダイ,Sendai,川内,센다이,,,,,1010,46,895-0024,鹿児島県薩摩川内市鳥追町1-1,130.312083,31.813726,1914-06-01,0000-00-00,0,101011
101012,1190411,鹿児島中央,カゴシマチュウオウ,Kagoshima-Chūō,鹿儿岛中央,가고시마추오,,,,,1010,46,890-0053,鹿児島県鹿児島市中央町1-1,130.541245,31.583785,1913-10-11,0000-00-00,0,101012
101101,1120265,新青森,シンアオモリ,Shin-Aomori,新青森,신아오모리,,,,,1011,2,038-0003,青森県青森市大字石江字高間140-2,140.693472,40.8275,1986-11-01,0000-00-00,0,101101
101102,1111802,奥津軽いまべつ,オクツガルイマベツ,Okutsugaru-Imabetsu,奥津轻今别,오쿠쓰가루이마베쓰,,,,,1011,2,030-1505,青森県東津軽郡今別町字大川平清川内,140.515453,41.145078,1986-11-01,0000-00-00,0,101102
101103,1111806,木古内,キコナイ,Kikonai,木古内,기코나이,,,,,1011,1,049-0422,北海道上磯郡木古内町本町,140.4342735,41.67828093,1930-10-25,0000-00-00,0,101103
101104,1110106,新函館北斗,シンハコダテホクト,Shin-Hakodate-Hokuto,新函馆北斗,신하코다테호쿠토,,,,,1011,1,041-1242,北海道北斗市市渡,140.6475,41.905,1902-12-10,0000-00-00,0,101104
101105,101105,新八雲,シンヤクモ,Shin-Yakumo,新八云,신야쿠모,,,,,1011,1,049-2671,北海道二海郡八雲町,140.23175,42.255333,0000-00-00,0000-00-00,1,101105
101106,1110138,長万部,オシャマンベ,Oshamambe,长万部,오샤만베,,,,,1011,1,049-3521,北海道山越郡長万部町字長万部,140.37507,42.512477,1903-11-03,0000-00-00,1,101106
101107,1110211,倶知安,クッチャン,Kutchan,倶知安,굿찬,,,,,1011,1,044-0051,北海道虻田郡倶知安町北三条西４丁目,140.745471,42.90164,1905-10-15,0000-00-00,1,101107
101108,1110211,新小樽,シンオタル,Shin-Otaru,新小樽,신오타루,,,,,1011,1,047-0032,北海道小樽市,140.987944,43.162583,0000-00-00,0000-00-00,1,101108
101109,1110315,札幌,サッポロ,Sapporo,札幌,삿포로,,,,,1011,1,060-0806,北海道札幌市北区北６条西４丁目,141.350768,43.068612,0000-00-00,0000-00-00,1,101109
101201,1191805,武雄温泉,タケオオンセン,Takeo-Onsen,武雄温泉,타케오온센,,,,,1012,41,843-0024,佐賀県武雄市武雄町大字富岡8260,130.0229,33.196289,1865-05-05,0000-00-00,0,101201
101202,101202,嬉野温泉,ウレシノオンセン,Ureshino-Onsen,嬉野温泉,우레시노온센,,,,,1012,41,843-0301,佐賀県嬉野市嬉野町大字下宿甲93番,129.998972,33.106556,2022-09-23,0000-00-00,0,101202
101203,1192215,新大村,シンオオムラ,Shin-Omura,新大村,신오무라,,,,,1012,42,856-0027,長崎県大村市植松三丁目115番地3,129.956944,32.932778,2022-09-23,0000-00-00,0,101203
101204,1190527,諫早,イサハヤ,Isahaya,谏早,이사하야,,,,,1012,42,854-0072,長崎県諫早市永昌町1番1号,130.041472,32.851839,1898-11-27,0000-00-00,0,101204
101205,1190541,長崎,ナガサキ,Nagasaki,长崎,나가사키,,,,,1012,42,850-0058,長崎県長崎市尾上町1-89,129.869056,32.75275,0000-00-00,0000-00-00,0,101205
1110101,1110101,函館,ハコダテ,Hakodate,函馆,하코다테,75,,,,11101,1,040-0063,北海道函館市若松町１２-１３,140.726413,41.773709,1902-12-10,0000-00-00,0,1110101
1110102,1110102,五稜郭,ゴリョウカク,Goryōkaku,五棱郭,고료카쿠,74,,,,11101,1,041-0813,北海道函館市亀田本町,140.733539,41.803557,0000-00-00,0000-00-00,0,1110102
1110103,1110103,桔梗,キキョウ,Kikyō,桔梗,기쿄,73,,,,11101,1,041-0801,北海道函館市桔梗３丁目４１-３６,140.722952,41.846457,1902-12-10,0000-00-00,0,1110103
1110104,1110104,大中山,オオナカヤマ,Ōnakayama,大中山,오나카야마,72,,,,11101,1,041-1121,北海道亀田郡七飯町大字大中山,140.71358,41.864641,0000-00-00,0000-00-00,0,1110104
1110105,1110105,七飯,ナナエ,Nanae,七饭,나나에,71,,,,11101,1,041-1111,北海道亀田郡七飯町字本町,140.688556,41.886971,0000-00-00,0000-00-00,0,1110105
1110106,1110106,新函館北斗,シンハコダテホクト,Shin-Hakodate-Hokuto,新函馆北斗,신하코다테호쿠토,70,,,,11101,1,041-1242,北海道北斗市市渡,140.646525,41.9054,1902-12-10,0000-00-00,0,1110106
1110107,1110107,仁山,ニヤマ,Niyama,仁山,니야마,69,,,,11101,1,041-1101,北海道亀田郡七飯町字仁山,140.635183,41.930011,0000-00-00,0000-00-00,0,1110107
1110108,1110108,大沼,オオヌマ,Ōnuma,大沼,오누마,68,,,,11101,1,041-1354,北海道亀田郡七飯町字大沼町４,140.669347,41.971954,1903-06-28,0000-00-00,0,1110108
1110109,1110109,大沼公園,オオヌマコウエン,Ōnuma-Kōen,大沼公园,오누마 공원,67,,,,11101,1,041-1354,北海道亀田郡七飯町字大沼町８５,140.669758,41.980958,1907-06-05,0000-00-00,0,1110109
1110110,1110110,赤井川,アカイガワ,Akaigawa,赤井川,아카이가와,66,,,,11101,1,049-2142,北海道茅部郡森町字赤井川,140.642678,42.003267,0000-00-00,0000-00-00,0,1110110
1110111,1110111,駒ケ岳,コマガタケ,Komagatake,驹岳,고마가타케,65,,,,11101,1,049-2300,北海道茅部郡森町字駒ヶ岳,140.610476,42.038809,0000-00-00,0000-00-00,0,1110111
1110112,1110112,東山,ヒガシヤマ,Higashiyama,东山,히가시야마,64,,,,11101,1,049-2141,北海道茅部郡森町字駒ケ岳,140.605222,42.06172,1943-02-26,2017-03-04,2,1110112
1110113,1110113,姫川,ヒメカワ,Himekawa,姬川,히메카와,63,,,,11101,1,049-2306,北海道茅部郡森町字姫川,140.591632,42.081312,1951-05-19,2017-03-04,2,1110113
1110114,1110114,池田園,イケダエン,Ikedaen,池田园,이케다엔,,71,,,11101,1,041-1352,北海道亀田郡七飯町字軍川,140.700333,41.990692,1945-06-01,2022-03-12,2,1110114
1110115,1110115,流山温泉,ナガレヤマオンセン,Nagareyama Onsen,流山温泉,나가레야마 온천,,70,,,11101,1,041-1351,北海道亀田郡七飯町字東大沼２３６,140.716358,42.003483,2002-04-27,2022-03-12,2,1110115
1110116,1110116,銚子口,チョウシグチ,Chōshiguchi,铫子口,조시구치,,69,,,11101,1,041-1351,北海道亀田郡七飯町字東大沼,140.720656,42.015471,1945-06-01,2022-03-12,2,1110116
1110117,1110117,鹿部,シカベ,Shikabe,鹿部,시카베,,68,,,11101,1,041-1404,北海道茅部郡鹿部町字本別,140.771393,42.06439,0000-00-00,0000-00-00,0,1110117
1110118,1110118,渡島沼尻,オシマヌマジリ,Onuma-Numajiri,渡岛沼尻,오시마누마지리,,67,,,11101,1,049-2223,北海道茅部郡森町砂原東４丁目,140.747596,42.10706,0000-00-00,0000-00-00,0,1110118
1110119,1110119,渡島砂原,オシマサワラ,Oshima-Sawara,渡岛砂原,오시마사와라,,66,,,11101,1,049-2222,北海道茅部郡森町砂原４丁目,140.689451,42.12164,0000-00-00,0000-00-00,0,1110119
1110120,1110120,掛澗,カカリマ,Kakarima,挂涧,가카리마,,65,,,11101,1,049-2221,北海道茅部郡森町砂原西３丁目,140.64598,42.119205,0000-00-00,0000-00-00,0,1110120
1110121,1110121,尾白内,オシロナイ,Oshironai,尾白内,오시로나이,,64,,,11101,1,049-2301,北海道茅部郡森町字尾白内町,140.613449,42.111232,0000-00-00,0000-00-00,0,1110121
1110122,1110122,東森,ヒガシモリ,Higashi-Mori,东森,히가시모리,,63,,,11101,1,049-2302,北海道茅部郡森町字港町,140.59353,42.106823,0000-00-00,0000-00-00,0,1110122
1110123,1110123,森,モリ,Mori,森,모리,62,,,,11101,1,049-2325,北海道茅部郡森町字本町,140.573846,42.108917,0000-00-00,0000-00-00,0,1110123
1110124,1110124,桂川,カツラガワ,Katsuragawa,桂川,가쓰라가와,61,,,,11101,1,049-2321,北海道茅部郡森町字鷲ノ木町,140.5427876,42.1156004,1944-09-30,2017-03-04,2,1110124
1110125,1110125,石谷,イシヤ,Ishiya,石谷,이시야,60,,,,11101,1,049-2464,北海道茅部郡森町字本茅部町,140.506525,42.135519,1930-03-20,2022-03-12,2,1110125
1110126,1110126,本石倉,ホンイシクラ,Hon-Ishikura,本石仓,혼이시쿠라,59,,,,11101,1,049-2463,北海道茅部郡森町字石倉町,140.471957,42.159668,1944-09-10,2022-03-12,2,1110126
1110127,1110127,石倉,イシクラ,Ishikura,石仓,이시쿠라,58,,,,11101,1,049-2463,北海道茅部郡森町字石倉町,140.458436,42.17285,0000-00-00,0000-00-00,0,1110127
1110128,1110128,落部,オトシベ,Otoshibe,落部,오토시베,57,,,,11101,1,049-2562,北海道二海郡八雲町落部,140.420755,42.187617,0000-00-00,0000-00-00,0,1110128
1110129,1110129,野田生,ノダオイ,Nodaoi,野田生,노다오이,56,,,,11101,1,049-2672,北海道二海郡八雲町野田生,140.37586,42.217104,0000-00-00,0000-00-00,0,1110129
1110130,1110130,山越,ヤマコシ,Yamakoshi,山越,야마코시,55,,,,11101,1,049-2671,北海道二海郡八雲町山越,140.326593,42.231172,0000-00-00,0000-00-00,0,1110130
1110131,1110131,八雲,ヤクモ,Yakumo,八云,야쿠모,54,,,,11101,1,049-3107,北海道二海郡八雲町本町,140.273342,42.253391,0000-00-00,0000-00-00,0,1110131
1110132,1110132,鷲ノ巣,ワシノス,Washinosu,鹫之巢,와시노스,53,,,,11101,1,049-3122,北海道二海郡八雲町花浦,140.269919,42.278389,1987-04-01,2016-03-26,2,1110132
1110133,1110133,山崎,ヤマサキ,Yamasaki,山崎,야마사키,52,,,,11101,1,049-3342,北海道二海郡八雲町山崎,140.2746,42.314635,0000-00-00,0000-00-00,0,1110133
1110134,1110134,黒岩,クロイワ,Kuroiwa,黑岩,구로이와,51,,,,11101,1,049-3341,北海道二海郡八雲町黒岩,140.288173,42.368296,0000-00-00,0000-00-00,0,1110134
1110135,1110135,北豊津,キタトヨツ,Kita‐Toyotsu,北丰津,기타토요쓰,50,,,,11101,1,049-3464,北海道山越郡長万部町字豊津,140.297868,42.400969,1944-07-01,2017-03-04,2,1110135
1110136,1110136,国縫,クンヌイ,Kunnui,国缝,군누이,49,,,,11101,1,049-3462,北海道山越郡長万部町字国縫,140.320885,42.439319,0000-00-00,0000-00-00,0,1110136
1110137,1110137,中ノ沢,ナカノサワ,Nakanosawa,中之泽,나카노사와,48,,,,11101,1,049-3512,北海道山越郡長万部町字中の沢,140.346077,42.477928,0000-00-00,0000-00-00,0,1110137
1110138,1110138,長万部,オシャマンベ,Oshamambe,长万部,오샤만베,47,,,,11101,1,049-3521,北海道山越郡長万部町字長万部,140.37507,42.512477,1903-11-03,0000-00-00,0,1110138
1110201,1110138,長万部,オシャマンベ,Oshamambe,长万部,오샤만베,,47,,,11102,1,049-3521,北海道山越郡長万部町字長万部,140.37507,42.512477,0000-00-00,0000-00-00,0,1110201
1110202,1110202,二股,フタマタ,Futamata,二股,후타마타,32,,,,11102,1,049-3501,北海道山越郡長万部町字双葉,140.320821,42.575869,0000-00-00,0000-00-00,0,1110202
1110203,1110203,蕨岱,ワラビタイ,Warabitai,蕨岱,와라비타이,31,,,,11102,1,049-3503,北海道山越郡長万部町字蕨岱,140.313353,42.626353,1904-10-15,2017-03-04,2,1110203
1110204,1110204,黒松内,クロマツナイ,Kuromatsunai,黑松内,구로마쓰나이,30,,,,11102,1,048-0101,北海道寿都郡黒松内町字黒松内,140.305704,42.669608,0000-00-00,0000-00-00,0,1110204
1110205,1110205,熱郛,ネップ,Neppu,热郛,넷푸,29,,,,11102,1,048-0134,北海道寿都郡黒松内町字白井川,140.375084,42.675653,0000-00-00,0000-00-00,0,1110205
1110206,1110206,目名,メナ,Mena,目名,메나,28,,,,11102,1,048-1261,北海道磯谷郡蘭越町目名町,140.465742,42.761432,0000-00-00,0000-00-00,0,1110206
1110207,1110207,蘭越,ランコシ,Rankoshi,兰越,란코시,27,,,,11102,1,048-1301,北海道磯谷郡蘭越町蘭越町,140.52894,42.804542,0000-00-00,0000-00-00,0,1110207
1110208,1110208,昆布,コンブ,Kombu,昆布,곤부,26,,,,11102,1,048-1302,北海道磯谷郡蘭越町昆布町,140.596107,42.797984,0000-00-00,0000-00-00,0,1110208
1110209,1110209,ニセコ,ニセコ,Niseko,新雪谷,니세코,25,,,,11102,1,048-1512,北海道虻田郡ニセコ町字中央通,140.684588,42.808746,0000-00-00,0000-00-00,0,1110209
1110210,1110210,比羅夫,ヒラフ,Hirafu,比罗夫,히라후,24,,,,11102,1,044-0077,北海道虻田郡倶知安町比羅夫,140.722615,42.84856,0000-00-00,0000-00-00,0,1110210
1110211,1110211,倶知安,クッチャン,Kutchan,俱知安,굿찬,23,,,,11102,1,044-0051,北海道虻田郡倶知安町北三条西４丁目,140.745471,42.90164,0000-00-00,0000-00-00,0,1110211
1110212,1110212,小沢,コザワ,Kozawa,小泽,고자와,22,,,,11102,1,048-2142,北海道岩内郡共和町小沢,140.677657,42.97185,0000-00-00,0000-00-00,0,1110212
1110213,1110213,銀山,ギンザン,Ginzan,银山,긴잔,21,,,,11102,1,048-2335,北海道余市郡仁木町銀山２丁目,140.715321,43.040888,0000-00-00,0000-00-00,0,1110213
1110214,1110214,然別,シカリベツ,Shikaribetsu,然别,시카리베쓰,20,,,,11102,1,048-2403,北海道余市郡仁木町然別,140.737211,43.12551,0000-00-00,0000-00-00,0,1110214
1110215,1110215,仁木,ニキ,Niki,仁木,니키,19,,,,11102,1,048-2405,北海道余市郡仁木町字北町１丁目,140.770546,43.154091,0000-00-00,0000-00-00,0,1110215
1110216,1110216,余市,ヨイチ,Yoichi,余市,요이치,18,,,,11102,1,046-0003,北海道余市郡余市町黒川町５丁目,140.794686,43.186558,0000-00-00,0000-00-00,0,1110216
1110217,1110217,蘭島,ランシマ,Ranshima,兰岛,란시마,17,,,,11102,1,048-2562,北海道小樽市蘭島１丁目,140.854643,43.19651,0000-00-00,0000-00-00,0,1110217
1110218,1110218,塩谷,シオヤ,Shioya,盐谷,시오야,16,,,,11102,1,048-2672,北海道小樽市塩谷２丁目,140.924546,43.202406,0000-00-00,0000-00-00,0,1110218
1110219,1110219,小樽,オタル,Otaru,小樽,오타루,15,,,,11102,1,047-0032,北海道小樽市稲穂２丁目,140.993653,43.197172,0000-00-00,0000-00-00,0,1110219
1110301,1110219,小樽,オタル,Otaru,小樽,오타루,,15,,,11103,1,047-0032,北海道小樽市稲穂２丁目,140.993653,43.197172,0000-00-00,0000-00-00,0,1110301
1110302,1110302,南小樽,ミナミオタル,Minami-Otaru,南小樽,미나미오타루,,14,,,11103,1,047-0015,北海道小樽市住吉町,141.007883,43.186529,0000-00-00,0000-00-00,0,1110302
1110303,1110303,小樽築港,オタルチッコウ,Otaruchikko,小樽筑港,오타루칫코,,13,,,11103,1,047-0008,北海道小樽市築港,141.029051,43.180752,0000-00-00,0000-00-00,0,1110303
1110304,1110304,朝里,アサリ,Asari,朝里,아사리,,12,,,11103,1,047-0151,北海道小樽市朝里１丁目,141.063923,43.176868,0000-00-00,0000-00-00,0,1110304
1110305,1110305,銭函,ゼニバコ,Zenibako,钱函,제니바코,,11,,,11103,1,047-0261,北海道小樽市銭函２丁目,141.159868,43.143403,0000-00-00,0000-00-00,0,1110305
1110306,1110306,ほしみ,ホシミ,Hoshimi,星见,호시미,,10,,,11103,1,006-0859,北海道札幌市手稲区手稲星置１条９丁目,141.191402,43.13373,0000-00-00,0000-00-00,0,1110306
1110307,1110307,星置,ホシオキ,Hoshioki,星置,호시오키,,09,,,11103,1,006-0851,北海道札幌市手稲区星置１条３丁目,141.210856,43.132375,0000-00-00,0000-00-00,0,1110307
1110308,1110308,稲穂,イナホ,Inaho,稻穗,이나호,,08,,,11103,1,006-0831,北海道札幌市手稲区曙１条３丁目,141.222919,43.128115,0000-00-00,0000-00-00,0,1110308
1110309,1110309,手稲,テイネ,Teine,手稻,데이네,,07,,,11103,1,006-0021,北海道札幌市手稲区手稲本町１条４丁目,141.243785,43.120238,0000-00-00,0000-00-00,0,1110309
1110310,1110310,稲積公園,イナヅミコウエン,Inazumikōen,稻积公园,이나즈미코엔,,06,,,11103,1,006-0011,北海道札幌市手稲区富丘１条４丁目,141.257113,43.112023,0000-00-00,0000-00-00,0,1110310
1110311,1110311,発寒,ハッサム,Hassamu,发寒,핫사무,,05,,,11103,1,063-0829,北海道札幌市西区発寒９条１３丁目,141.277273,43.099819,0000-00-00,0000-00-00,0,1110311
1110312,1110312,発寒中央,ハッサムチュウオウ,Hassamuchūō,发寒中央,핫사무추오,,04,,,11103,1,063-0826,北海道札幌市西区発寒十条３丁目,141.294497,43.089271,0000-00-00,0000-00-00,0,1110312
1110313,1110313,琴似,コトニ,Kotoni,琴似,고토니,,03,,,11103,1,063-0812,北海道札幌市西区琴似2条2丁目,141.307418,43.081599,0000-00-00,0000-00-00,0,1110313
1110314,1110314,桑園,ソウエン,Sōen,桑园,소엔,,02,,,11103,1,060-0011,北海道札幌市中央区北１１条西１５丁目,141.332036,43.070744,0000-00-00,0000-00-00,0,1110314
1110315,1110315,札幌,サッポロ,Sapporo,札幌,삿포로,,,01,,11103,1,060-0806,北海道札幌市北区北６条西４丁目,141.350768,43.068612,0000-00-00,0000-00-00,0,1110315
1110316,1110316,苗穂,ナエボ,Naebo,苗穗,나에보,,02,,,11103,1,060-0033,北海道札幌市中央区北３条東１３丁目,141.377522,43.068574,0000-00-00,0000-00-00,0,1110316
1110317,1110317,白石,シロイシ,Shiroishi,白石,시로이시,,03,,,11103,1,003-0029,北海道札幌市白石区平和通3丁目北6,141.413612,43.054715,1903-04-21,0000-00-00,0,1110317
1110318,1110318,厚別,アツベツ,Atsubetsu,厚别,아쓰베쓰,04,,,,11103,1,004-0055,北海道札幌市厚別区厚別中央５条４丁目,141.46369,43.045154,0000-00-00,0000-00-00,0,1110318
1110319,1110319,森林公園,シンリンコウエン,Shinrinkōen,森林公园,신린코엔,05,,,,11103,1,004-0071,北海道札幌市厚別区厚別北１条４丁目,141.481332,43.056456,0000-00-00,0000-00-00,0,1110319
1110320,1110320,大麻,オオアサ,Ōasa,大麻,오아사,06,,,,11103,1,069-0854,北海道江別市大麻中町,141.496925,43.072382,0000-00-00,0000-00-00,0,1110320
1110321,1110321,野幌,ノッポロ,Nopporo,野幌,놋포로,07,,,,11103,1,069-0813,北海道江別市野幌町,141.52984,43.092559,0000-00-00,0000-00-00,0,1110321
1110322,1110322,高砂,タカサゴ,Takasago,高砂,다카사고,08,,,,11103,1,067-0074,北海道江別市高砂町,141.540752,43.100084,0000-00-00,0000-00-00,0,1110322
1110323,1110323,江別,エベツ,Ebetsu,江别,에베쓰,09,,,,11103,1,067-0071,北海道江別市萩ケ岡,141.55679,43.110189,0000-00-00,0000-00-00,0,1110323
1110324,1110324,豊幌,トヨホロ,Toyohoro,丰幌,도요호로,10,,,,11103,1,067-0021,北海道江別市豊幌,141.62466,43.136446,0000-00-00,0000-00-00,0,1110324
1110325,1110325,幌向,ホロムイ,Horomui,幌向,호로무이,11,,,,11103,1,069-0371,北海道岩見沢市幌向南１条３丁目,141.655839,43.151348,0000-00-00,0000-00-00,0,1110325
1110326,1110326,上幌向,カミホロムイ,Kami-Horomui,上幌向,가미호로무이,12,,,,11103,1,069-0362,北海道岩見沢市上幌向南１条４丁目,141.715391,43.18183,0000-00-00,0000-00-00,0,1110326
1110327,1110327,岩見沢,イワミザワ,Iwamizawa,岩见泽,이와미자와,13,,,,11103,1,068-0034,北海道岩見沢市有明町南,141.759359,43.204201,0000-00-00,0000-00-00,0,1110327
1110328,1110328,峰延,ミネノブ,Minenobu,峰延,미네노부,14,,,,11103,1,072-0000,北海道美唄市峰延,141.814673,43.264694,0000-00-00,0000-00-00,0,1110328
1110329,1110329,光珠内,コウシュナイ,Koushunai,光珠内,고슈나이,15,,,,11103,1,072-0000,北海道美唄市光珠内,141.844655,43.292658,0000-00-00,0000-00-00,0,1110329
1110330,1110330,美唄,ビバイ,Bibai,美呗,비바이,16,,,,11103,1,072-0012,北海道美唄市東一条南２丁目,141.862157,43.330751,0000-00-00,0000-00-00,0,1110330
1110331,1110331,茶志内,チャシナイ,Chashinai,茶志内,자시나이,17,,,,11103,1,079-0261,北海道美唄市茶志内町,141.87336,43.369842,0000-00-00,0000-00-00,0,1110331
1110332,1110332,奈井江,ナイエ,Naie,奈井江,나이에,18,,,,11103,1,079-0313,北海道空知郡奈井江町本町１区,141.889115,43.423718,0000-00-00,0000-00-00,0,1110332
1110333,1110333,豊沼,トヨヌマ,Toyonuma,丰沼,도요누마,19,,,,11103,1,073-0138,北海道砂川市豊沼町,141.901032,43.464224,0000-00-00,0000-00-00,0,1110333
1110334,1110334,砂川,スナガワ,Sunagawa,砂川,스나가와,20,,,,11103,1,073-0152,北海道砂川市東２条北２丁目,141.909642,43.493468,0000-00-00,0000-00-00,0,1110334
1110335,1110335,滝川,タキカワ,Takikawa,泷川,다키카와,21,,,,11103,1,073-0031,北海道滝川市栄町４丁目,141.900807,43.555278,0000-00-00,0000-00-00,0,1110335
1110336,1110336,江部乙,エベオツ,Ebeotsu,江部乙,에베오쓰,22,,,,11103,1,079-0462,北海道滝川市江部乙町西町１２丁目,141.935937,43.627564,0000-00-00,0000-00-00,0,1110336
1110337,1110337,妹背牛,モセウシ,Moseushi,妹背牛,모세우시,23,,,,11103,1,079-0500,北海道雨竜郡妹背牛町字妹背牛,141.966591,43.690841,0000-00-00,0000-00-00,0,1110337
1110338,1110338,深川,フカガワ,Fukagawa,深川,후카가와,24,,,,11103,1,074-0001,北海道深川市１条,142.041642,43.721021,0000-00-00,0000-00-00,0,1110338
1110339,1110339,納内,オサムナイ,Osamunai,纳内,오사무나이,25,,,,11103,1,078-0151,北海道深川市納内町字納内,142.130072,43.732509,0000-00-00,0000-00-00,0,1110339
1110340,1110340,伊納,イノウ,Inou,伊纳,이노,26,,,,11103,1,070-8052,北海道旭川市江丹別町春日,142.27167,43.763305,1898-07-16,2021-03-13,2,1110340
1110341,1110341,近文,チカブミ,Chikabumi,近文,지카부미,27,,,,11103,1,070-0821,北海道旭川市近文町１９丁目,142.325327,43.789193,0000-00-00,0000-00-00,0,1110341
1110342,1110342,旭川,アサヒカワ,Asahikawa,旭川,아사히카와,28,,,,11103,1,070-0030,北海道旭川市宮下通８丁目,142.357803,43.763492,0000-00-00,0000-00-00,0,1110342
1110401,1110138,長万部,オシャマンベ,Oshamambe,长万部,오샤만베,47,,,,11104,1,049-3521,北海道山越郡長万部町字長万部,140.37507,42.512477,0000-00-00,0000-00-00,0,1110401
1110402,1110402,静狩,シズカリ,Shizukari,静狩,시즈카리,46,,,,11104,1,049-5141,北海道山越郡長万部町字静狩,140.460025,42.584065,0000-00-00,0000-00-00,0,1110402
1110403,1110403,小幌,コボロ,Koboro,小幌,고보로,45,,,,11104,1,049-5333,北海道虻田郡豊浦町字礼文華,140.537361,42.589731,0000-00-00,0000-00-00,0,1110403
1110404,1110404,礼文,レブン,Rebun,礼文,레분,44,,,,11104,1,049-5333,北海道虻田郡豊浦町字礼文華,140.595013,42.580422,0000-00-00,0000-00-00,0,1110404
1110405,1110405,大岸,オオキシ,Okishi,大岸,오키시,43,,,,11104,1,049-5332,北海道虻田郡豊浦町字大岸,140.639036,42.585969,0000-00-00,0000-00-00,0,1110405
1110406,1110406,豊浦,トヨウラ,Toyoura,丰浦,도요우라,42,,,,11104,1,049-5412,北海道虻田郡豊浦町字旭町,140.71536,42.580323,0000-00-00,0000-00-00,0,1110406
1110407,1110407,洞爺,トウヤ,Touya,洞爷,도야,41,,,,11104,1,049-5611,北海道虻田郡洞爺湖町旭町,140.763959,42.55055,0000-00-00,0000-00-00,0,1110407
1110408,1110408,有珠,ウス,Usu,有珠,우스,40,,,,11104,1,059-0151,北海道伊達市有珠町,140.793969,42.513267,0000-00-00,0000-00-00,0,1110408
1110409,1110409,長和,ナガワ,Nagawa,长和,나가와,39,,,,11104,1,052-0035,北海道伊達市長和町,140.833783,42.488262,0000-00-00,0000-00-00,0,1110409
1110410,1110410,伊達紋別,ダテモンベツ,Datemombetsu,伊达纹别,다테몬베쓰,38,,,,11104,1,052-0032,北海道伊達市山下町,140.855802,42.469395,0000-00-00,0000-00-00,0,1110410
1110411,1110411,北舟岡,キタフナオカ,Kita-Funaoka,北舟冈,기타후나오카,37,,,,11104,1,052-0014,北海道伊達市舟岡町,140.880259,42.450528,0000-00-00,0000-00-00,0,1110411
1110412,1110412,稀府,マレップ,Mareppu,稀府,마렛푸,36,,,,11104,1,059-0273,北海道伊達市南稀府町,140.898836,42.425567,0000-00-00,0000-00-00,0,1110412
1110413,1110413,黄金,コガネ,Kogane,黄金,고가네,35,,,,11104,1,059-0271,北海道伊達市南黄金町,140.907781,42.386441,0000-00-00,0000-00-00,0,1110413
1110414,1110414,崎守,サキモリ,Sakimori,崎守,사키모리,34,,,,11104,1,050-0055,北海道室蘭市崎守町,140.927141,42.373968,0000-00-00,0000-00-00,0,1110414
1110415,1110415,本輪西,モトワニシ,Moto-Wanishi,本轮西,모토와니시,33,,,,11104,1,050-0065,北海道室蘭市本輪西町１丁目,140.977561,42.358734,0000-00-00,0000-00-00,0,1110415
1110416,1110416,室蘭,ムロラン,Muroran,室兰,무로란,,36,,,11104,1,051-0023,北海道室蘭市入江町１,140.97571,42.317864,0000-00-00,0000-00-00,0,1110416
1110417,1110417,母恋,ボコイ,Bokoi,母恋,보코이,,35,,,11104,1,051-0004,北海道室蘭市母恋北町１丁目,140.990018,42.317295,0000-00-00,0000-00-00,0,1110417
1110418,1110418,御崎,ミサキ,Misaki,御崎,미사키,,34,,,11104,1,051-0001,北海道室蘭市御崎町２丁目,140.993881,42.329014,0000-00-00,0000-00-00,0,1110418
1110419,1110419,輪西,ワニシ,Wanishi,轮西,와니시,,33,,,11104,1,050-0087,北海道室蘭市仲町,141.005743,42.333775,0000-00-00,0000-00-00,0,1110419
1110420,1110420,東室蘭,ヒガシムロラン,Higashi-Muroran,东室兰,히가시무로란,32,,,,11104,1,050-0083,北海道室蘭市東町２丁目,141.026411,42.349374,0000-00-00,0000-00-00,0,1110420
1110421,1110421,鷲別,ワシベツ,Washibetsu,鹫别,호로베쓰,31,,,,11104,1,059-0034,北海道登別市鷲別町２丁目,141.042759,42.35953,0000-00-00,0000-00-00,0,1110421
1110422,1110422,幌別,ホロベツ,Horobetsu,幌别,와시베쓰,30,,,,11104,1,059-0013,北海道登別市幌別町３丁目,141.107293,42.409782,0000-00-00,0000-00-00,0,1110422
1110423,1110423,富浦,トミウラ,Tomiura,富浦,도미우라,29,,,,11104,1,059-0462,北海道登別市富浦町１丁目,141.156878,42.441957,0000-00-00,0000-00-00,0,1110423
1110424,1110424,登別,ノボリベツ,Noboribetsu,登别,노보리베쓰,28,,,,11104,1,059-0466,北海道登別市登別港町１丁目,141.180931,42.45207,0000-00-00,0000-00-00,0,1110424
1110425,1110425,虎杖浜,コジョウハマ,Kojōhama,虎杖滨,고조하마,27,,,,11104,1,059-0641,北海道白老郡白老町字虎杖浜,141.215092,42.464695,0000-00-00,0000-00-00,0,1110425
1110426,1110426,竹浦,タケウラ,Takeura,竹浦,다케우라,26,,,,11104,1,059-0642,北海道白老郡白老町字竹浦,141.260395,42.49284,0000-00-00,0000-00-00,0,1110426
1110427,1110427,北吉原,キタヨシハラ,Kita-Yoshihara,北吉原,기타요시하라,25,,,,11104,1,059-0923,北海道白老郡白老町字北吉原,141.286199,42.509119,0000-00-00,0000-00-00,0,1110427
1110428,1110428,萩野,ハギノ,Hagino,萩野,하기노,24,,,,11104,1,059-0922,北海道白老郡白老町字萩野,141.30603,42.521159,0000-00-00,0000-00-00,0,1110428
1110429,1110429,白老,シラオイ,Shiraoi,白老,시라오이,23,,,,11104,1,059-0904,北海道白老郡白老町東町１丁目,141.360054,42.55474,0000-00-00,0000-00-00,0,1110429
1110430,1110430,社台,シャダイ,Shadai,社台,샤다이,22,,,,11104,1,059-0901,北海道白老郡白老町字社台,141.417433,42.578682,0000-00-00,0000-00-00,0,1110430
1110431,1110431,錦岡,ニシキオカ,Nishikioka,锦冈,니시키오카,21,,,,11104,1,059-1275,北海道苫小牧市字錦岡,141.48722,42.6025,0000-00-00,0000-00-00,0,1110431
1110432,1110432,糸井,イトイ,Itoi,糸井,이토이,20,,,,11104,1,053-0816,北海道苫小牧市日吉町３丁目,141.546187,42.6225,0000-00-00,0000-00-00,0,1110432
1110433,1110433,青葉,アオバ,Aoba,青叶,아오바,19,,,,11104,1,053-0807,北海道苫小牧市青葉町１丁目,141.568278,42.62999,0000-00-00,0000-00-00,0,1110433
1110434,1110434,苫小牧,トマコマイ,Tomakomai,苫小牧,도마코마이,18,,,,11104,1,053-0022,北海道苫小牧市表町６丁目,141.596837,42.639665,0000-00-00,0000-00-00,0,1110434
1110501,1110434,苫小牧,トマコマイ,Tomakomai,苫小牧,도마코마이,18,,,,11105,1,053-0022,北海道苫小牧市表町６丁目,141.596837,42.639665,0000-00-00,0000-00-00,0,1110501
1110502,1110502,沼ノ端,ヌマノハタ,Numanohata,沼之端,누마노하타,17,,,,11105,1,059-1364,北海道苫小牧市字沼ノ端,141.693132,42.672057,0000-00-00,0000-00-00,0,1110502
1110503,1110503,遠浅,トアサ,Toasa,远浅,도아사,,,,,11105,1,059-1433,北海道勇払郡安平町遠浅,141.769568,42.729533,0000-00-00,0000-00-00,0,1110503
1110504,1110504,早来,ハヤキタ,Hayakita,早来,하야키타,,,,,11105,1,059-1501,北海道勇払郡安平町早来大町,141.814106,42.765237,0000-00-00,0000-00-00,0,1110504
1110505,1110505,安平,アビラ,Abira,安平,아비라,,,,,11105,1,059-1511,北海道勇払郡安平町安平,141.825283,42.814007,0000-00-00,0000-00-00,0,1110505
1110506,1110506,追分,オイワケ,Oiwake,追分,오이와케,,15,,,11105,1,059-1931,北海道勇払郡安平町追分中央,141.810678,42.873316,0000-00-00,0000-00-00,0,1110506
1110507,1110507,三川,ミカワ,Mikawa,三川,미카와,,,,,11105,1,069-1200,北海道夕張郡由仁町三川,141.800778,42.945029,0000-00-00,0000-00-00,0,1110507
1110508,1110508,古山,フルサン,Furusan,古山,후루산,,,,,11105,1,069-1216,北海道夕張郡由仁町字古山,141.793969,42.975256,0000-00-00,0000-00-00,0,1110508
1110509,1110509,由仁,ユニ,Yuni,由仁,유니,,,,,11105,1,069-1216,北海道夕張郡由仁町古山,141.785868,43.012206,0000-00-00,0000-00-00,0,1110509
1110510,1110510,栗山,クリヤマ,Kuriyama,栗山,구리야마,,,,,11105,1,069-1511,北海道夕張郡栗山町中央３丁目,141.775603,43.058164,0000-00-00,0000-00-00,0,1110510
1110511,1110511,栗丘,クリオカ,Kurioka,栗丘,구리오카,,,,,11105,1,068-0134,北海道岩見沢市栗沢町栗丘,141.744333,43.085444,0000-00-00,0000-00-00,0,1110511
1110512,1110512,栗沢,クリサワ,Kurisawa,栗泽,구리사와,,,,,11105,1,068-0127,北海道岩見沢市栗沢町本町,141.739743,43.120367,0000-00-00,0000-00-00,0,1110512
1110513,1110513,志文,シブン,Shibun,志文,시분,,,,,11105,1,068-0841,北海道岩見沢市志文本町１条４丁目,141.744443,43.158903,0000-00-00,0000-00-00,0,1110513
1110514,1110327,岩見沢,イワミザワ,Iwamizawa,岩见泽,이와미자와,,,13,,11105,1,068-0034,北海道岩見沢市有明町南,141.759359,43.204201,0000-00-00,0000-00-00,0,1110514
1110601,1110335,滝川,タキカワ,Takikawa,泷川,다키카와,,,21,,11106,1,073-0031,北海道滝川市栄町４丁目,141.900807,43.555278,0000-00-00,0000-00-00,0,1110601
1110602,1110602,東滝川,ヒガシタキカワ,Higashi-Takikawa,东泷川,히가시타키카와,22,,,,11106,1,073-0026,北海道滝川市東滝川,141.98031,43.574037,0000-00-00,0000-00-00,0,1110602
1110603,1110603,赤平,アカビラ,Akabira,赤平,아카비라,23,,,,11106,1,079-1134,北海道赤平市泉町１丁目,142.048669,43.555144,0000-00-00,0000-00-00,0,1110603
1110604,1110604,茂尻,モシリ,Moshiri,茂尻,모시리,24,,,,11106,1,079-1100,北海道赤平市字茂尻町南２丁目,142.082156,43.537314,0000-00-00,0000-00-00,0,1110604
1110605,1110605,平岸,ヒラギシ,Hiragishi,平岸,히라기시,25,,,,11106,1,079-1282,北海道赤平市平岸仲町１丁目,142.123872,43.541401,0000-00-00,0000-00-00,0,1110605
1110606,1110606,芦別,アシベツ,Ashibetsu,芦别,아시베쓰,26,,,,11106,1,075-0041,北海道芦別市本町,142.184543,43.516636,0000-00-00,0000-00-00,0,1110606
1110607,1110607,上芦別,カミアシベツ,Kami-Ashibetsu,上芦别,가미아시베쓰,27,,,,11106,1,079-1371,北海道芦別市上芦別町,142.210855,43.48871,0000-00-00,0000-00-00,0,1110607
1110608,1110608,野花南,ノカナン,Nokanan,野花南,노카난,28,,,,11106,1,079-1372,北海道芦別市野花南町,142.261772,43.474418,0000-00-00,0000-00-00,0,1110608
1110609,1110609,島ノ下,シマノシタ,Shimanoshita,岛之下,시마노시타,29,,,,11106,1,076-0036,北海道富良野市字島ノ下,142.350406,43.3744,1913-11-10,2017-03-04,2,1110609
1110610,1110610,富良野,フラノ,Furano,富良野,후라노,30,,,,11106,1,076-0025,北海道富良野市日の出町,142.391374,43.347114,0000-00-00,0000-00-00,0,1110610
1110611,1110611,布部,ヌノベ,Nunobe,布部,누노베,31,,,,11106,1,076-0004,北海道富良野市字布部市街地,142.400595,43.291991,0000-00-00,0000-00-00,0,1110611
1110612,1110612,山部,ヤマベ,Yamabe,山部,야마베,32,,,,11106,1,079-1564,北海道富良野市字山部市山部中町,142.381522,43.244645,0000-00-00,0000-00-00,0,1110612
1110613,1110613,下金山,シモカナヤマ,Shimo-Kanayama,下金山,시모카나야마,33,,,,11106,1,079-2132,北海道空知郡南富良野町字下金山,142.415402,43.197328,0000-00-00,0000-00-00,0,1110613
1110614,1110614,金山,カナヤマ,Kanayama,金山,가나야마,34,,,,11106,1,079-2131,北海道空知郡南富良野町字金山,142.416201,43.136115,0000-00-00,0000-00-00,0,1110614
1110615,1110615,東鹿越,ヒガシシカゴエ,Higashi-Shikagoe,东鹿越,히가시시카고에,35,,,,11106,1,079-2411,北海道空知郡南富良野町東鹿越,142.523472,43.164011,0000-00-00,0000-00-00,0,1110615
1110616,1110616,幾寅,イクトラ,Ikutora,几寅,이쿠토라,36,,,,11106,1,079-2401,北海道空知郡南富良野町幾寅仲町,142.569474,43.161582,0000-00-00,0000-00-00,0,1110616
1110617,1110617,落合,オチアイ,Ochiai,落合,오치아이,37,,,,11106,1,079-2551,北海道空知郡南富良野町落合,142.669104,43.125055,0000-00-00,0000-00-00,0,1110617
1110618,1110618,新得,シントク,Shintoku,新得,신토쿠,,23,,,11106,1,081-0005,北海道上川郡新得町本通北１丁目,142.832432,43.082501,0000-00-00,0000-00-00,0,1110618
1110701,1110618,新得,シントク,Shintoku,新得,신토쿠,24,,,,11107,1,081-0005,北海道上川郡新得町本通北１丁目,142.832432,43.082501,0000-00-00,0000-00-00,0,1110701
1110702,1110702,十勝清水,トカチシミズ,Tokachi-Shimizu,十胜清水,도카치시미즈,24,,,,11107,1,089-0136,北海道上川郡清水町本通１丁目,142.879535,43.012892,0000-00-00,0000-00-00,0,1110702
1110703,1110703,羽帯,ハオビ,Haobi,羽带,하오비,25,,,,11107,1,089-0356,北海道上川郡清水町字羽帯,142.906646,42.957499,1958-09-10,2018-03-17,2,1110703
1110704,1110704,御影,ミカゲ,Mikage,御影,하오비,26,,,,11107,1,089-0354,北海道上川郡清水町御影本通り１丁目,142.935739,42.942418,0000-00-00,0000-00-00,0,1110704
1110705,1110705,芽室,メムロ,Memuro,芽室,메무로,27,,,,11107,1,082-0030,北海道河西郡芽室町本通り１丁目,143.047991,42.909846,0000-00-00,0000-00-00,0,1110705
1110706,1110706,大成,タイセイ,Taisei,大成,다이세이,28,,,,11107,1,082-0006,北海道河西郡芽室町東芽室南２線,143.0696659,42.91605619,0000-00-00,0000-00-00,0,1110706
1110707,1110707,西帯広,ニシオビヒロ,Nishi-Obihiro,西带广,니시오비히로,29,,,,11107,1,080-2473,北海道帯広市西２３条南１丁目,143.126351,42.923941,0000-00-00,0000-00-00,0,1110707
1110708,1110708,柏林台,ハクリンダイ,Hakurindai,柏林台,하쿠린다이,30,,,,11107,1,080-0027,北海道帯広市西１７条南１丁目,143.1645,42.928877,0000-00-00,0000-00-00,0,1110708
1110709,1110709,帯広,オビヒロ,Obihiro,带广,오비히로,31,,,,11107,1,080-0012,北海道帯広市西２条南１２丁目,143.20195,42.917997,0000-00-00,0000-00-00,0,1110709
1110710,1110710,札内,サツナイ,Satsunai,札内,사쓰나이,32,,,,11107,1,089-0543,北海道中川郡幕別町字札内中央町,143.256248,42.912697,0000-00-00,0000-00-00,0,1110710
1110711,1110711,稲士別,イナシベツ,Inashibetsu,稻士别,이나시베쓰,33,,,,11107,1,089-0564,北海道中川郡幕別町稲志別,143.297528,42.903963,1959-10-07,2017-03-04,2,1110711
1110712,1110712,幕別,マクベツ,Makubetsu,幕别,마쿠베쓰,34,,,,11107,1,089-0604,北海道中川郡幕別町錦町,143.359293,42.90784,0000-00-00,0000-00-00,0,1110712
1110713,1110713,利別,トシベツ,Toshibetsu,利别,도시베쓰,35,,,,11107,1,083-0031,北海道中川郡池田町字利別西町,143.424445,42.934706,0000-00-00,0000-00-00,0,1110713
1110714,1110714,池田,イケダ,Ikeda,池田,이케다,36,,,,11107,1,083-0091,北海道中川郡池田町東１条１丁目,143.453033,42.922186,0000-00-00,0000-00-00,0,1110714
1110715,1110715,十弗,トオフツ,Tōfutsu,十弗,도후쓰,37,,,,11107,1,089-5243,北海道中川郡豊頃町字十弗宝町,143.500797,42.855781,0000-00-00,0000-00-00,0,1110715
1110716,1110716,豊頃,トヨコロ,Toyokoro,丰顷,도요코로,38,,,,11107,1,089-5232,北海道中川郡豊頃町豊頃旭町,143.538615,42.817548,0000-00-00,0000-00-00,0,1110716
1110717,1110717,新吉野,シンヨシノ,Shin-Yoshino,新吉野,신요시노,39,,,,11107,1,089-5541,北海道十勝郡浦幌町字吉野,143.60826,42.778238,0000-00-00,0000-00-00,0,1110717
1110718,1110718,浦幌,ウラホロ,Urahoro,浦幌,우라호로,40,,,,11107,1,089-5603,北海道十勝郡浦幌町字本町,143.651568,42.810849,0000-00-00,0000-00-00,0,1110718
1110719,1110719,上厚内,カミアツナイ,Kamiatsunai,上厚内,가미아쓰나이,41,,,,11107,1,089-5866,北海道十勝郡浦幌町字上厚内,143.749788,42.831881,1910-12-01,2017-03-04,2,1110719
1110720,1110720,厚内,アツナイ,Atsunai,厚内,아쓰나이,42,,,,11107,1,089-5865,北海道十勝郡浦幌町字厚内,143.814389,42.809539,0000-00-00,0000-00-00,0,1110720
1110721,1110721,直別,チョクベツ,Chokubetsu,直别,조쿠베쓰,43,,,,11107,1,088-0135,北海道釧路市音別町直別,143.863607,42.852205,1907-10-25,2019-03-16,2,1110721
1110722,1110722,尺別,シャクベツ,Shakubetsu,尺别,샤쿠베쓰,44,,,,11107,1,088-0132,北海道釧路市音別町尺別（岐線）,143.904331,42.869163,1920-01-22,2019-03-16,2,1110722
1110723,1110723,音別,オンベツ,Onbetsu,音别,온베쓰,45,,,,11107,1,088-0115,北海道釧路市音別町本町１丁目,143.932442,42.888997,0000-00-00,0000-00-00,0,1110723
1110724,1110724,古瀬,フルセ,Furuse,古濑,후루세,46,,,,11107,1,088-0351,北海道白糠郡白糠町和天別,144.008589,42.947893,1954-07-01,2020-03-14,2,1110724
1110725,1110725,白糠,シラヌカ,Shiranuka,白糠,시라누카,47,,,,11107,1,088-0301,北海道白糠郡白糠町東１条南１丁目,144.076879,42.956161,0000-00-00,0000-00-00,0,1110725
1110726,1110726,西庶路,ニシショロ,Nishi-Shoro,西庶路,니시쇼로,48,,,,11107,1,088-0572,北海道白糠郡白糠町西庶路西１条南３丁目,144.129826,42.976138,0000-00-00,0000-00-00,0,1110726
1110727,1110727,庶路,ショロ,Shoro,庶路,쇼로,49,,,,11107,1,088-0563,北海道白糠郡白糠町庶路甲区,144.150018,42.983601,0000-00-00,0000-00-00,0,1110727
1110728,1110728,大楽毛,オタノシケ,Otanoshike,大乐毛,오타노시케,50,,,,11107,1,084-0917,北海道釧路市大楽毛５丁目,144.273879,43.009078,0000-00-00,0000-00-00,0,1110728
1110729,1110729,新大楽毛,シンオタノシケ,Shin-Otanoshike,新大乐毛,신오타노시케,51,,,,11107,1,084-0917,北海道釧路市大楽毛１丁目,144.295558,43.009423,0000-00-00,0000-00-00,0,1110729
1110730,1110730,新富士,シンフジ,Shin-Fuji,新富士,신후지,52,,,,11107,1,084-0904,北海道釧路市新富士町３丁目,144.350758,43.001605,0000-00-00,0000-00-00,0,1110730
1110731,1110731,釧路,クシロ,Kushiro,钏路,구시로,53,,,,11107,1,085-0015,北海道釧路市北大通１４丁目,144.381983,42.990584,0000-00-00,0000-00-00,0,1110731
1110801,1110731,釧路,クシロ,Kushiro,钏路,구시로,53,,,,11108,1,085-0015,北海道釧路市北大通１４丁目,144.381983,42.990584,0000-00-00,0000-00-00,0,1110801
1110802,1110802,東釧路,ヒガシクシロ,Higashi-Kushiro,东钏路,히가시쿠시로,,54,,,11108,1,085-0816,北海道釧路市貝塚２丁目,144.411307,42.995207,0000-00-00,0000-00-00,0,1110802
1110803,1110803,武佐,ムサ,Musa,武佐,무사,,,,,11108,1,085-0806,北海道釧路市武佐４丁目,144.426681,42.991364,0000-00-00,0000-00-00,0,1110803
1110804,1110804,別保,ベッポ,Beppo,别保,벳포,,,,,11108,1,088-0604,北海道釧路郡釧路町字別保,144.469596,42.994384,0000-00-00,0000-00-00,0,1110804
1110805,1110805,上尾幌,カミオボロ,Kami-Oboro,上尾幌,가미오보로,,,,,11108,1,088-0771,北海道厚岸郡厚岸町字上尾幌市街,144.61239,43.032893,0000-00-00,0000-00-00,0,1110805
1110806,1110806,尾幌,オボロ,Oboro,尾幌,오보로,,,,,11108,1,088-0875,北海道厚岸郡厚岸町大字苫多村字尾幌,144.703758,43.018463,0000-00-00,0000-00-00,0,1110806
1110807,1110807,門静,モンシズ,Monshizu,门静,몬시즈,,,,,11108,1,088-1126,北海道厚岸郡厚岸町字門静,144.782638,43.057581,0000-00-00,0000-00-00,0,1110807
1110808,1110808,厚岸,アッケシ,Akkeshi,厚岸,앗케시,,,,,11108,1,088-1124,北海道厚岸郡厚岸町字宮園町,144.841355,43.056248,0000-00-00,0000-00-00,0,1110808
1110809,1110809,糸魚沢,イトイザワ,Itoizawa,糸鱼泽,이토이자와,,,,,11108,1,088-1101,北海道厚岸郡厚岸町大字別寒辺牛村ベカンベウシ,144.92545,43.103506,1919-11-25,2022-03-12,2,1110809
1110810,1110810,茶内,チャナイ,Chanai,茶内,자나이,,,,,11108,1,088-1500,北海道厚岸郡浜中町大字琵琶瀬村字茶内市街,145.02801,43.129266,0000-00-00,0000-00-00,0,1110810
1110811,1110811,浜中,ハマナカ,Hamanaka,滨中,하마나카,,,,,11108,1,088-1500,北海道厚岸郡浜中町大字後静村字浜中市街,145.099657,43.15754,0000-00-00,0000-00-00,0,1110811
1110812,1110812,姉別,アネベツ,Anebetsu,姊别,아네베쓰,,,,,11108,1,088-1500,北海道厚岸郡浜中町大字後静村字姉別市街,145.194716,43.196201,0000-00-00,0000-00-00,0,1110812
1110813,1110813,厚床,アットコ,Attoko,厚床,앗토코,,,,,11108,1,086-0064,北海道根室市厚床１丁目,145.252096,43.228224,0000-00-00,0000-00-00,0,1110813
1110814,1110814,初田牛,ハッタウシ,Hattaushi,初田牛,핫타우시,,,,,11108,1,086-0076,北海道根室市初田牛,145.32277,43.204542,1920-11-10,2019-03-16,2,1110814
1110815,1110815,別当賀,ベットガ,Bettoga,别当贺,벳토가,,,,,11108,1,086-0075,北海道根室市別当賀,145.423593,43.218427,0000-00-00,0000-00-00,0,1110815
1110816,1110816,落石,オチイシ,Oshiishi,落石,오치이시,,,,,11108,1,088-1782,北海道根室市落石東,145.519449,43.198335,0000-00-00,0000-00-00,0,1110816
1110817,1110817,昆布盛,コンブモリ,Kombumori,昆布盛,곤부모리,,,,,11108,1,088-1784,北海道根室市昆布盛,145.542444,43.228593,0000-00-00,0000-00-00,0,1110817
1110818,1110818,西和田,ニシワダ,Nishi-Wada,西和田,니시와다,,,,,11108,1,087-0033,北海道根室市西和田,145.541817,43.268043,0000-00-00,0000-00-00,0,1110818
1110819,1110819,花咲,ハナサキ,Hanasaki,花咲,하나사키,,,,,11108,1,087-0032,北海道根室市花咲港,145.575045,43.295388,1921-08-05,2016-03-26,2,1110819
1110820,1110820,東根室,ヒガシネムロ,Higashi-nemuro,东根室,히가시네무로,,,,,11108,1,087-0004,北海道根室市光洋町２丁目,145.597234,43.323655,0000-00-00,0000-00-00,0,1110820
1110821,1110821,根室,ネムロ,Nemuro,根室,네무로,,,,,11108,1,087-0027,北海道根室市光和町２丁目,145.582707,43.326923,0000-00-00,0000-00-00,0,1110821
1110901,1110434,苫小牧,トマコマイ,Tomakomai,苫小牧,도마코마이,18,,,,11109,1,053-0022,北海道苫小牧市表町６丁目,141.596837,42.639665,0000-00-00,0000-00-00,0,1110901
1110902,1110502,沼ノ端,ヌマノハタ,Numanohata,沼之端,누마노하타,17,,,,11109,1,059-1364,北海道苫小牧市字沼ノ端,141.693132,42.672057,0000-00-00,0000-00-00,0,1110902
1110903,1110903,植苗,ウエナエ,Uenae,植苗,우에나에,16,,,,11109,1,059-1365,北海道苫小牧市字植苗,141.735344,42.713645,0000-00-00,0000-00-00,0,1110903
1110904,1110904,美々,ビビ,Bibi,美美,비비,15,,,,11109,1,066-0012,北海道千歳市美々,141.711387,42.777418,1926-08-21,2017-03-04,2,1110904
1110905,1110905,新千歳空港,シンチトセクウコウ,New Chitose Airport,新千岁机场,신치토세 공항,,15,,,11109,1,066-0012,北海道千歳市美々,141.680823,42.787546,0000-00-00,0000-00-00,0,1110905
1110906,1110906,南千歳,ミナミチトセ,Minami-Chitose,南千岁,미나미치토세,14,,,,11109,1,066-0044,北海道千歳市字平和,141.675388,42.80804,0000-00-00,0000-00-00,0,1110906
1110907,1110907,千歳,チトセ,Chitose,千岁,지토세,13,,,,11109,1,066-0062,北海道千歳市千代田町７丁目,141.651934,42.82811,0000-00-00,0000-00-00,0,1110907
1110908,1110908,長都,オサツ,Osatsu,长都,오사쓰,12,,,,11109,1,066-0077,北海道千歳市上長都,141.622987,42.852178,0000-00-00,0000-00-00,0,1110908
1110909,1110909,サッポロビール庭園,サッポロビールテイエン,Sapporo-Beer-Teien,札幌啤酒庭园,삿포로비루테이엔,11,,,,11109,1,061-1405,北海道恵庭市戸磯,141.605616,42.866812,0000-00-00,0000-00-00,0,1110909
1110910,1110910,恵庭,エニワ,Eniwa,惠庭,에니와,10,,,,11109,1,061-1448,北海道恵庭市相生町,141.586234,42.883076,0000-00-00,0000-00-00,0,1110910
1110911,1110911,恵み野,メグミノ,Megumino,惠野,메구미노,09,,,,11109,1,061-1373,北海道恵庭市恵み野西１丁目,141.574429,42.902704,0000-00-00,0000-00-00,0,1110911
1110912,1110912,島松,シママツ,Shimamatsu,岛松,시마마쓰,08,,,,11109,1,061-1352,北海道恵庭市島松仲町１丁目１-１,141.573117,42.922504,0000-00-00,0000-00-00,0,1110912
1110913,1110913,北広島,キタヒロシマ,Kita-Hiroshima,北广岛,기타히로시마,07,,,,11109,1,061-1121,北海道北広島市中央６丁目,141.563115,42.979239,0000-00-00,0000-00-00,0,1110913
1110914,1110914,上野幌,カミノッポロ,Kami-Nopporo,上野幌,가미놋포로,06,,,,11109,1,004-0039,北海道札幌市厚別区厚別町上野幌,141.487317,43.016177,0000-00-00,0000-00-00,0,1110914
1110915,1110915,新札幌,シンサッポロ,Shin-Sapporo,新札幌,신삿포로,05,,,,11109,1,004-0052,北海道札幌市厚別区厚別中央二条５丁目,141.47237,43.038732,0000-00-00,0000-00-00,0,1110915
1110916,1110916,平和,ヘイワ,Heiwa,平和,헤이와,04,,,,11109,1,003-0029,北海道札幌市白石区平和通１６丁目北,141.437967,43.04695,0000-00-00,0000-00-00,0,1110916
1110917,1110317,白石,シロイシ,Shiroishi,白石,시로이시,03,,,,11109,1,003-0029,北海道札幌市白石区平和通3丁目北6,141.413612,43.054715,1903-04-21,0000-00-00,0,1110917
1110918,1110316,苗穂,ナエボ,Naebo,苗穗,나에보,02,,,,11109,1,060-0033,北海道札幌市中央区北３条東１３丁目,141.377522,43.068574,0000-00-00,0000-00-00,0,1110918
1110919,1110315,札幌,サッポロ,Sapporo,札幌,삿포로,,,01,,11109,1,060-0806,北海道札幌市北区北６条西４丁目,141.350768,43.068612,0000-00-00,0000-00-00,0,1110919
1111001,1110906,南千歳,ミナミチトセ,Minami-Chitose,南千岁,미나미치토세,,14,,,11110,1,066-0044,北海道千歳市字平和,141.675388,42.80804,0000-00-00,0000-00-00,0,1111001
1111002,1110506,追分,オイワケ,Oiwake,追分,오이와케,15,,,,11110,1,059-1931,北海道勇払郡安平町追分中央,141.810678,42.873316,0000-00-00,0000-00-00,0,1111002
1111003,1111003,東追分,ヒガシオイワケ,Higashi-Oiwake,东追分,히가시오이와케,16,,,,11110,1,059-1984,北海道勇払郡安平町追分向陽,141.83228,42.902377,1965-03-01,2016-03-26,2,1111003
1111004,1111004,川端,カワバタ,Kaebata,川端,가와바타,17,,,,11110,1,069-1141,北海道夕張郡由仁町字川端,141.894791,42.914721,0000-00-00,0000-00-00,0,1111004
1111005,1111005,滝ノ上,タキノウエ,Takinoue,泷之上,다키노우에,18,,,,11110,1,068-0756,北海道夕張市滝ノ上,141.97628,42.910244,0000-00-00,0000-00-00,0,1111005
1111006,1111006,十三里,トミサト,Tomisato,十三里,도미사토,19,,,,11110,1,068-0755,北海道夕張市紅葉山,142.024478,42.914667,1962-12-25,2016-03-26,2,1111006
1111007,1111007,新夕張,シンユウバリ,Shin-Yubari,新夕张,신유바리,20,,,,11110,1,068-0755,北海道夕張市紅葉山,142.03657,42.936611,0000-00-00,0000-00-00,0,1111007
1111008,1111008,沼ノ沢,ヌマノサワ,Numanosawa,沼之泽,누마노사와,,,21,,11110,1,068-0751,北海道夕張市沼ノ沢,142.030836,42.957586,0000-00-00,2019-04-01,2,1111008
1111009,1111009,南清水沢,ミナミシミズサワ,Minamishimizusawa,南清水泽,미나미시미즈사와,,,22,,11110,1,068-0536,北海道夕張市南清水沢２丁目,142.006597,42.985272,0000-00-00,2019-04-01,2,1111009
1111010,1111010,清水沢,シミズサワ,Shimizusawa,清水泽,시미즈사와,,,23,,11110,1,068-0531,北海道夕張市清水沢３丁目,142.007285,42.99827,0000-00-00,2019-04-01,2,1111010
1111011,1111011,鹿ノ谷,シカノタニ,Shikanotani,鹿之谷,시카노타니,,,24,,11110,1,068-0413,北海道夕張市鹿の谷３丁目,141.964476,43.039447,0000-00-00,2019-04-01,2,1111011
1111012,1111012,夕張,ユウバリ,Yūbari,夕张,유바리,,,25,,11110,1,068-0411,北海道夕張市末広１丁目,141.967472,43.050926,0000-00-00,2019-04-01,2,1111012
1111013,1111013,占冠,シムカップ,Shimukappu,占冠,시무캇푸,21,,,,11110,1,079-2202,北海道勇払郡占冠村占冠,142.400078,42.993088,0000-00-00,0000-00-00,0,1111013
1111014,1111014,トマム,トマム,Tomamu,苫鹉,도마무,22,,,,11110,1,079-2204,北海道勇払郡占冠村字中トマム,142.610937,43.055913,0000-00-00,0000-00-00,0,1111014
1111015,1110618,新得,シントク,Shintoku,新得,신토쿠,28,,,,11110,1,081-0005,北海道上川郡新得町本通北１丁目,142.832432,43.082501,0000-00-00,0000-00-00,0,1111015
1111101,1110434,苫小牧,トマコマイ,Tomakomai,苫小牧,도마코마이,18,,,,11111,1,053-0022,北海道苫小牧市表町６丁目,141.596837,42.639665,0000-00-00,0000-00-00,0,1111101
1111102,1111102,勇払,ユウフツ,Yūfutsu,勇拂,유후쓰,,,,,11111,1,059-1372,北海道苫小牧市字勇払,141.727667,42.632805,0000-00-00,0000-00-00,0,1111102
1111103,1111103,浜厚真,ハマアツマ,Hama-Atsuma,滨厚真,하마아쓰마,,,,,11111,1,059-1742,北海道勇払郡厚真町字浜厚真,141.837071,42.606725,0000-00-00,0000-00-00,0,1111103
1111104,1111104,浜田浦,ハマタウラ,Hama-Atsuma,滨田浦,하마타우라,,,,,11111,1,054-0004,北海道勇払郡むかわ町田浦,141.88362,42.590722,0000-00-00,0000-00-00,0,1111104
1111105,1111105,鵡川,ムカワ,Mukawa,鹉川,무카와,,,,,11111,1,054-0023,北海道勇払郡むかわ町末広２丁目,141.923892,42.578953,0000-00-00,0000-00-00,0,1111105
1111106,1111106,汐見,シオミ,Shiomi,汐见,시오미,,,,,11111,1,054-0015,北海道勇払郡むかわ町汐見,141.945255,42.550235,0000-00-00,2021-04-01,2,1111106
1111107,1111107,富川,トミカワ,Tomikawa,富川,도미카와,,,,,11111,1,055-0006,北海道沙流郡日高町富川南４丁目,142.020855,42.516865,0000-00-00,2021-04-01,2,1111107
1111108,1111108,日高門別,ヒダカモンベツ,Hidaka-Mombetsu,日高门别,히다카몬베쓰,,,,,11111,1,059-2121,北海道沙流郡日高町門別本町,142.072692,42.481237,0000-00-00,2021-04-01,2,1111108
1111109,1111109,豊郷,トヨサト,Toyosato,丰乡,도요사토,,,,,11111,1,059-2126,北海道沙流郡日高町豊郷,142.122493,42.470119,0000-00-00,2021-04-01,2,1111109
1111110,1111110,清畠,キヨハタ,Kiyohata,清畠,기요하타,,,,,11111,1,059-2245,北海道沙流郡日高町清畠,142.176624,42.455709,0000-00-00,2021-04-01,2,1111110
1111111,1111111,厚賀,アツガ,Atsuga,厚贺,아쓰가,,,,,11111,1,059-2243,北海道沙流郡日高町厚賀町,142.215896,42.430507,0000-00-00,2021-04-01,2,1111111
1111112,1111112,大狩部,オオカリベ,Ōkaribe,大狩部,오카리베,,,,,11111,1,059-2253,北海道新冠郡新冠町字大狩部,142.259355,42.395695,0000-00-00,2021-04-01,2,1111112
1111113,1111113,節婦,セップ,Seppu,节妇,셋푸,,,,,11111,1,059-2412,北海道新冠郡新冠町字節婦町,142.275541,42.38248,0000-00-00,2021-04-01,2,1111113
1111114,1111114,新冠,ニイカップ,Niikappu,新冠,니이캇푸,,,,,11111,1,059-2400,北海道新冠郡新冠町新冠字本町,142.312585,42.360667,0000-00-00,2021-04-01,2,1111114
1111115,1111115,静内,シズナイ,Shizunai,静内,시즈나이,,,,,11111,1,056-0016,北海道日高郡新ひだか町静内本町５丁目,142.360402,42.336559,0000-00-00,2021-04-01,2,1111115
1111116,1111116,静内海水浴場,シズナイカイスイヨクジョウ,Shizunai-kaisuiyokujō,静内海水浴场,시즈나이 해수욕장,,,,,11111,1,056-0011,北海道日高郡新ひだか町静内真歌,142.400665,42.314084,0000-00-00,0000-00-00,2,1111116
1111117,1111117,東静内,ヒガシシズナイ,Higashi-Shizunai,东静内,히가시시즈나이,,,,,11111,1,059-2561,北海道日高郡新ひだか町東静内,142.450485,42.304416,0000-00-00,2021-04-01,2,1111117
1111118,1111118,春立,ハルタチ,Harutachi,春立,하루타치,,,,,11111,1,059-2565,北海道日高郡新ひだか町静内春立,142.498943,42.268515,0000-00-00,2021-04-01,2,1111118
1111119,1111119,日高東別,ヒダカトウベツ,Hidaka-Tōbetsu,日高东别,히다카토베쓰,,,,,11111,1,059-2566,北海道日高郡新ひだか町静内東別,142.521371,42.280837,0000-00-00,2021-04-01,2,1111119
1111120,1111120,日高三石,ヒダカミツイシ,Hidaka-Mitsuishi,日高三石,히다카미쓰이시,,,,,11111,1,059-3107,北海道日高郡新ひだか町三石旭町,142.566859,42.247269,0000-00-00,2021-04-01,2,1111120
1111121,1111121,蓬栄,ホウエイ,Hōei,蓬荣,호에이,,,,,11111,1,059-3104,北海道日高郡新ひだか町三石蓬栄,142.604517,42.264636,0000-00-00,2021-04-01,2,1111121
1111122,1111122,本桐,ホンキリ,Honkiri,本桐,혼키리,,,,,11111,1,059-3231,北海道日高郡新ひだか町三石本桐,142.630455,42.248205,0000-00-00,2021-04-01,2,1111122
1111123,1111123,荻伏,オギフシ,Ogifushi,荻伏,오기후시,,,,,11111,1,059-3451,北海道浦河郡浦河町荻伏町,142.689432,42.206136,0000-00-00,2021-04-01,2,1111123
1111124,1111124,絵笛,エフエ,Efue,绘笛,에후에,,,,,11111,1,057-0036,北海道浦河郡浦河町絵笛,142.736134,42.198428,0000-00-00,2021-04-01,2,1111124
1111125,1111125,浦河,ウラカワ,Urakawa,浦河,우라카와,,,,,11111,1,057-0022,北海道浦河郡浦河町昌平町,142.769976,42.168366,0000-00-00,2021-04-01,2,1111125
1111126,1111126,東町,ヒガシチョウ,Higashichō,东町,히가시초,,,,,11111,1,057-0005,北海道浦河郡浦河町東町うしお１丁目,142.788931,42.156037,0000-00-00,2021-04-01,2,1111126
1111127,1111127,日高幌別,ヒダカホロベツ,Hidaka-Horobetsu,日高幌别,히다카호로베쓰,,,,,11111,1,057-0002,北海道浦河郡浦河町字西幌別,142.834519,42.142338,0000-00-00,2021-04-01,2,1111127
1111128,1111128,鵜苫,ウトマ,Utoma,鹈苫,우토마,,,,,11111,1,058-0033,北海道様似郡様似町鵜苫,142.882513,42.134449,0000-00-00,2021-04-01,2,1111128
1111129,1111129,西様似,ニシサマニ,Nishi-Samani,西样似,니시사마니,,,,,11111,1,058-0032,北海道様似郡様似町西町,142.908737,42.138411,0000-00-00,2021-04-01,2,1111129
1111130,1111130,様似,サマニ,Samani,样似,사마니,,,,,11111,1,058-0014,北海道様似郡様似町大通１丁目,142.93596,42.127936,0000-00-00,2021-04-01,2,1111130
1111201,1110315,札幌,サッポロ,Sapporo,札幌,삿포로,,,01,,11112,1,060-0806,北海道札幌市北区北６条西４丁目,141.350768,43.068612,0000-00-00,0000-00-00,0,1111201
1111202,1110314,桑園,ソウエン,Sōen,桑园,소엔,,02,,,11112,1,060-0011,北海道札幌市中央区北１１条西１５丁目,141.332036,43.070744,0000-00-00,0000-00-00,0,1111202
1111203,1111203,八軒,ハチケン,Hachiken,八轩,하치켄,03,,,,11112,1,063-0866,北海道札幌市西区八軒６条東２丁目,141.319145,43.085845,0000-00-00,0000-00-00,0,1111203
1111204,1111204,新川,シンカワ,Shinkawa,新川,신카와,04,,,,11112,1,001-0924,北海道札幌市北区新川四条１丁目,141.323824,43.098604,0000-00-00,0000-00-00,0,1111204
1111205,1111205,新琴似,シンコトニ,Shin-Kotoni,新琴似,신코토니,05,,,,11112,1,001-0908,北海道札幌市北区新琴似８条１丁目,141.335105,43.112928,0000-00-00,0000-00-00,0,1111205
1111206,1111206,太平,タイヘイ,Taihei,太平,다이헤이,06,,,,11112,1,002-8002,北海道札幌市北区太平２条５丁目,141.349526,43.12401,0000-00-00,0000-00-00,0,1111206
1111207,1111207,百合が原,ユリガハラ,Yurigahara,百合原,유리가하라,07,,,,11112,1,002-8051,北海道札幌市北区篠路町太平中央,141.360672,43.131476,0000-00-00,0000-00-00,0,1111207
1111208,1111208,篠路,シノロ,Shinoro,篠路,시노로,08,,,,11112,1,002-8024,北海道札幌市北区篠路４条７丁目,141.364323,43.145152,0000-00-00,0000-00-00,0,1111208
1111209,1111209,拓北,タクホク,Takuhoku,拓北,다쿠호쿠,09,,,,11112,1,002-8066,北海道札幌市北区拓北６条３丁目,141.381013,43.155568,0000-00-00,0000-00-00,0,1111209
1111210,1111210,あいの里教育大,アイノサトキョウイクダイ,Ainosato-Kyōikudai,爱之里教育大,아이노사토 교육대,10,,,,11112,1,002-8071,北海道札幌市北区あいの里１条５丁目,141.39842,43.15528,0000-00-00,0000-00-00,0,1111210
1111211,1111211,あいの里公園,アイノサトコウエン,Ainosato-Kōen,爱之里公园,아이노사토 공원,11,,,,11112,1,002-8072,北海道札幌市北区あいの里２条８丁目,141.413276,43.161206,0000-00-00,0000-00-00,0,1111211
1111231,1111231,ロイズタウン,ロイズタウン,ROYCE' Town,ROYCE' Town,ROYCE' Town,11-1,,,,11112,1,061-3773,北海道石狩郡当別町当別太1225番地9,141.436236,43.179589,2022-03-12,0000-00-00,0,1111211
1111212,1111212,太美,フトミ,Futomi,太美,후토미,12,,,,11112,1,061-3776,北海道石狩郡当別町太美町,141.449066,43.189801,0000-00-00,0000-00-00,0,1111212
1111213,1111213,当別,トウベツ,Tōbetsu,当别,토베쓰,13,,,,11112,1,061-0226,北海道石狩郡当別町字錦町,141.513764,43.22208,0000-00-00,0000-00-00,0,1111213
1111214,1111214,北海道医療大学,ホッカイドウイリョウダイガク,Hokkaidō-Iryōdaigaku,北海道医疗大学,홋카이도 의료 대학,14,,,,11112,1,061-0212,北海道石狩郡当別町字金沢,141.54995,43.230925,0000-00-00,0000-00-00,0,1111214
1111215,1111215,石狩金沢,イシカリカナザワ,Ishikari-Kanazawa,石狩金泽,이시카리카나자와,,,,,11112,1,061-0212,北海道石狩郡当別町字金沢,141.569239,43.245385,0000-00-00,2020-04-01,2,1111215
1111216,1111216,本中小屋,モトナカゴヤ,Moto-nakagoya,本中小屋,모토나카고야,,,,,11112,1,061-0211,北海道石狩郡当別町字中小屋,141.591661,43.28019,0000-00-00,2020-04-01,2,1111216
1111217,1111217,中小屋,ナカゴヤ,Nakagoya,中小屋,나카고야,,,,,11112,1,061-0211,北海道石狩郡当別町字中小屋,141.602341,43.306846,0000-00-00,2020-04-01,2,1111217
1111218,1111218,月ケ岡,ツキガオカ,Tsukigaoka,月冈,쓰키가오카,,,,,11112,1,061-0500,北海道樺戸郡月形町字月ヶ岡,141.61807,43.324867,0000-00-00,2020-04-01,2,1111218
1111219,1111219,知来乙,チライオツ,Chiraiotsu,知来乙,지라이오쓰,,,,,11112,1,061-0516,北海道樺戸郡月形町字知来乙,141.649123,43.331545,0000-00-00,2020-04-01,2,1111219
1111220,1111220,石狩月形,イシカリツキガタ,Ishikari-Tsukigata,石狩月形,이시카리쓰키가타,,,,,11112,1,061-0518,北海道樺戸郡月形町赤川,141.670193,43.340869,0000-00-00,2020-04-01,2,1111220
1111221,1111221,豊ケ岡,トヨガオカ,Toyogaoka,丰冈,도요가오카,,,,,11112,1,061-0500,北海道樺戸郡月形町字豊ケ丘,141.714026,43.366645,0000-00-00,2020-04-01,2,1111221
1111222,1111222,札比内,サッピナイ,Sappinai,札比内,삿피나이,,,,,11112,1,061-0505,北海道樺戸郡月形町字札比内,141.742762,43.370926,0000-00-00,2020-04-01,2,1111222
1111223,1111223,晩生内,オソキナイ,Osokinai,晚生内,오소키나이,,,,,11112,1,061-0622,北海道樺戸郡浦臼町字晩生内第２,141.779211,43.399921,0000-00-00,2020-04-01,2,1111223
1111224,1111224,札的,サッテキ,Satteki,札的,삿테키,,,,,11112,1,061-0600,北海道樺戸郡浦臼町字浦臼内,141.803549,43.419153,0000-00-00,2020-04-01,2,1111224
1111225,1111225,浦臼,ウラウス,Urausu,浦臼,우라우스,,,,,11112,1,061-0600,北海道樺戸郡浦臼町字浦臼内,141.817376,43.430964,0000-00-00,2020-04-01,2,1111225
1111226,1111226,鶴沼,ツルヌマ,Tsurunuma,鹤沼,쓰루누마,,,,,11112,1,061-0600,北海道樺戸郡浦臼町字於礼内,141.840637,43.457673,0000-00-00,2020-04-01,2,1111226
1111227,1111227,於札内,オサツナイ,Osatsunai,于札内,오사쓰나이,,,,,11112,1,061-0600,北海道樺戸郡浦臼町字オサツナイ,141.840102,43.473424,0000-00-00,2020-04-01,2,1111227
1111228,1111228,南下徳富,ミナミシモトップ,Minami-Shimo-Toppu,南下德富,미나미시모톳푸,,,,,11112,1,073-1105,北海道樺戸郡新十津川町字花月,141.844454,43.485542,0000-00-00,2020-04-01,2,1111228
1111229,1111229,下徳富,シモトップ,Shimo-Toppu,下德富,시모톳푸,,,,,11112,1,073-1105,北海道樺戸郡新十津川町字花月,141.855574,43.50271,0000-00-00,2020-04-01,2,1111229
1111230,1111230,新十津川,シントツカワ,Shin-Totsukawa,新十津川,신토쓰카와,,,,,11112,1,073-1103,北海道樺戸郡新十津川町字中央,141.874172,43.545575,0000-00-00,2020-04-01,2,1111230
1111301,1110338,深川,フカガワ,Fukagawa,深川,후카가와,,,,,11113,1,074-0001,北海道深川市１条,142.041642,43.721021,0000-00-00,0000-00-00,0,1111301
1111302,1111302,北一已,キタイチヤン,Kita-ichiyan,北一已,기타이치얀,,,,,11113,1,074-0028,北海道深川市一已町一已,142.014721,43.742021,0000-00-00,0000-00-00,0,1111302
1111303,1111303,秩父別,チップベツ,Chippubetsu,秩父别,짓푸베쓰,,,,,11113,1,078-2100,北海道雨竜郡秩父別町２６区,141.967757,43.769099,0000-00-00,0000-00-00,0,1111303
1111304,1111304,北秩父別,キタチップベツ,Kita-Chippubetsu,北秩父别,기타칫푸베쓰,,,,,11113,1,078-2106,北海道雨竜郡秩父別町６条１丁目,141.960915,43.789375,0000-00-00,0000-00-00,0,1111304
1111305,1111305,石狩沼田,イシカリヌマタ,Ishikari-Numata,石狩沼田,이시카리누마타,,,,,11113,1,078-2222,北海道雨竜郡沼田町沼田,141.934266,43.810032,0000-00-00,0000-00-00,0,1111305
1111306,1111306,真布,マップ,Mappu,真布,맛푸,,,,,11113,1,078-2221,北海道雨竜郡沼田町字真布,141.906756,43.832965,0000-00-00,2023-04-01,2,1111306
1111307,1111307,恵比島,エビシマ,Ebishima,惠比岛,에비시마,,,,,11113,1,078-2224,北海道雨竜郡沼田町字恵比島,141.88144,43.851296,0000-00-00,2023-04-01,2,1111307
1111308,1111308,峠下,トウゲシタ,Tougeshita,峠下,도게시타,,,,,11113,1,078-3161,北海道留萌市留萌村峠下,141.818879,43.850789,0000-00-00,2023-04-01,2,1111308
1111309,1111309,幌糠,ホロヌカ,Horonuka,幌糠,호로누카,,,,,11113,1,078-3168,北海道留萌市幌糠町幌糠,141.758418,43.855521,0000-00-00,2023-04-01,2,1111309
1111310,1111310,藤山,フジヤマ,Fujiyama,藤山,후지야마,,,,,11113,1,078-3165,北海道留萌市藤山町藤山,141.720588,43.88708,0000-00-00,2023-04-01,2,1111310
1111311,1111311,大和田,オオワダ,Owada,大和田,오와다,,,,,11113,1,077-0012,北海道留萌市大和田,141.696528,43.913418,0000-00-00,2023-04-01,2,1111311
1111312,1111312,留萌,ルモイ,Rumoi,留萌,루모이,,,,,11113,1,077-0005,北海道留萌市船場町２丁目,141.651433,43.942848,0000-00-00,2023-04-01,2,1111312
1111313,1111313,瀬越,セゴシ,Segoshi,濑越,세고시,,,,,11113,1,077-0047,北海道留萌市瀬越町,141.634535,43.934987,1926-07-01,2016-12-05,2,1111313
1111314,1111314,浜中海水浴場,ハマナカカイスイヨクジョウ,Hamanaka-kaisuiyokujō,滨中海水浴场,하마나카 해수욕장,,,,,11113,1,077-0036,北海道留萌市浜中町,141.632835,43.930354,1989-07-23,1995-08-08,2,1111314
1111315,1111315,礼受,レウケ,Reuke,礼受,레우케,,,,,11113,1,077-0035,北海道留萌市礼受町,141.611358,43.904871,1921-11-05,2016-12-05,2,1111315
1111316,1111316,阿分,アフン,Afun,阿分,아훈,,,,,11113,1,077-0200,北海道増毛郡増毛町大字阿分村,141.605598,43.894339,1963-12-01,2016-12-05,2,1111316
1111317,1111317,信砂,ノブシャ,Nobusha,信砂,노부샤,,,,,11113,1,077-0200,北海道増毛郡増毛町大字舎熊村字信砂,141.589039,43.874479,1963-12-01,2016-12-05,2,1111317
1111318,1111318,舎熊,シャグマ,Shaguma,舍熊,샤구마,,,,,11113,1,077-0200,北海道増毛郡増毛町大字舎熊村字舎熊,141.580068,43.869113,1921-11-05,2016-12-05,2,1111318
1111319,1111319,朱文別,シュモンベツ,Shumonbetsu,朱文别,슈몬베쓰,,,,,11113,1,077-0200,北海道増毛郡増毛町大字朱文別,141.564328,43.860678,1963-12-01,2016-12-05,2,1111319
1111320,1111320,箸別,ハシベツ,Hashibetsu,箸别,하시베쓰,,,,,11113,1,077-0200,北海道増毛郡増毛町増毛村大字箸別,141.55164,43.859125,1963-12-01,2016-12-05,2,1111320
1111321,1111321,増毛,マシケ,Mashike,增毛,마시케,,,,,11113,1,077-0205,北海道増毛郡増毛町弁天町１丁目,141.527559,43.856522,1921-11-05,2016-12-05,2,1111321
1111401,1110342,旭川,アサヒカワ,Asahikawa,旭川,아사히카와,,18,,,11114,1,070-0030,北海道旭川市宮下通８丁目,142.357803,43.763492,0000-00-00,0000-00-00,0,1111401
1111402,1111402,神楽岡,カグラオカ,Kaguraoka,神乐冈,가구라오카,29,,,,11114,1,078-8314,北海道旭川市神楽岡４条１４丁目,142.358257,43.745033,0000-00-00,0000-00-00,0,1111402
1111403,1111403,緑が丘,ミドリガオカ,Midorigaoka,绿丘,미도리가오카,30,,,,11114,1,078-8323,北海道旭川市神楽岡１３条９丁目,142.365701,43.731074,0000-00-00,0000-00-00,0,1111403
1111404,1111404,西御料,ニシゴリョウ,Nishi-Goryō,西御料,니시고료,31,,,,11114,1,078-8381,北海道旭川市西神楽一線５号,142.371507,43.720834,0000-00-00,0000-00-00,0,1111404
1111405,1111405,西瑞穂,ニシミズホ,Nishi-Mizuho,西瑞穗,니시미즈호,32,,,,11114,1,078-8381,北海道旭川市西神楽一線９号,142.381982,43.70242,0000-00-00,0000-00-00,0,1111405
1111406,1111406,西神楽,ニシカグラ,Nishi-Kagura,西神乐,니시카구라,33,,,,11114,1,071-0171,北海道旭川市西神楽南１条１丁目,142.393677,43.682181,0000-00-00,0000-00-00,0,1111406
1111407,1111407,西聖和,ニシセイワ,Nishi-Seiwa,西圣和,니시세이와,34,,,,11114,1,078-8382,北海道旭川市西神楽二線１７号,142.415209,43.669047,0000-00-00,0000-00-00,0,1111407
1111408,1111408,千代ケ岡,チヨガオカ,Chiyogaoka,千代冈,지요가오카,35,,,,11114,1,078-8381,北海道旭川市西神楽1線24号,142.451024,43.643737,0000-00-00,0000-00-00,0,1111408
1111409,1111409,北美瑛,キタビエイ,Kita-Biei,北美瑛,기타비에이,36,,,,11114,1,071-0226,北海道上川郡美瑛町字下宇莫別,142.479594,43.617884,0000-00-00,0000-00-00,0,1111409
1111410,1111410,美瑛,ビエイ,Biei,美瑛,비에이,37,,,,11114,1,071-0208,北海道上川郡美瑛町本町１丁目,142.461639,43.591186,0000-00-00,0000-00-00,0,1111410
1111411,1111411,美馬牛,ビバウシ,Bibaushi,美马牛,비바우시,38,,,,11114,1,071-0471,北海道上川郡美瑛町字美馬牛,142.447192,43.537408,0000-00-00,0000-00-00,0,1111411
1111412,1111412,上富良野,カミフラノ,Kami-Furano,上富良野,가미후라노,39,,,,11114,1,071-0543,北海道空知郡上富良野町中町１丁目,142.468761,43.464046,0000-00-00,0000-00-00,0,1111412
1111413,1111413,西中,ニシナカ,Nishinaka,西中,니시나카,40,,,,11114,1,071-0704,北海道空知郡中富良野町基線北１８号,142.441876,43.429569,0000-00-00,0000-00-00,0,1111413
1111414,1111414,ラベンダー畑,ラベンダーバタケ,Lavender-Farm,薰衣草花田,라벤더 밭,41,,,,11114,1,071-0704,北海道空知郡中富良野町基線北１５号,142.434032,43.42065,0000-00-00,0000-00-00,0,1111414
1111415,1111415,中富良野,ナカフラノ,Naka-Furano,中富良野,나카후라노,42,,,,11114,1,071-0700,北海道空知郡中富良野町市街地,142.420812,43.405704,0000-00-00,0000-00-00,0,1111415
1111416,1111416,鹿討,シカウチ,Shikauchi,鹿讨,시카우치,43,,,,11114,1,071-0700,北海道空知郡中富良野町字富良野基線北８号,142.404812,43.387499,0000-00-00,0000-00-00,0,1111416
1111417,1111417,学田,ガクデン,Gakuden,学田,가쿠덴,44,,,,11114,1,076-0047,北海道富良野市字西学田二区,142.386118,43.366234,0000-00-00,0000-00-00,0,1111417
1111418,1110610,富良野,フラノ,Furano,富良野,후라노,,,30,,11114,1,076-0025,北海道富良野市日の出町,142.391374,43.347114,0000-00-00,0000-00-00,0,1111418
1111501,1110342,旭川,アサヒカワ,Asahikawa,旭川,아사히카와,,28,,,11115,1,070-0030,北海道旭川市宮下通８丁目,142.357803,43.763492,0000-00-00,0000-00-00,0,1111501
1111502,1111502,旭川四条,アサヒカワヨジョウ,Asahikawayojō,旭川四条,아사히카와요조,,29,,,11115,1,078-8214,北海道旭川市四条通１８丁目,142.375815,43.764056,0000-00-00,0000-00-00,0,1111502
1111503,1111503,新旭川,シンアサヒカワ,Shin-Asahikawa,新旭川,신아사히카와,,30,,,11115,1,070-0028,北海道旭川市東八条６丁目,142.384789,43.780174,0000-00-00,0000-00-00,0,1111503
1111504,1111504,永山,ナガヤマ,Nagayama,永山,나가야마,31,,,,11115,1,079-8411,北海道旭川市永山１条１９丁目,142.434382,43.814158,0000-00-00,0000-00-00,0,1111504
1111505,1111505,北永山,キタナガヤマ,Kita-Nagayama,北永山,기타나가야마,32,,,,11115,1,079-8431,北海道旭川市永山町１５丁目,142.454493,43.826736,0000-00-00,0000-00-00,0,1111505
1111506,1111506,南比布,ミナミピップ,Minami-Pippu,南比布,미나미핏푸,33,,,,11115,1,078-0311,北海道上川郡比布町南１線５号,142.467271,43.853342,1955-12-02,2021-03-13,2,1111506
1111507,1111507,比布,ピップ,Pippu,比布,핏푸,34,,,,11115,1,078-0341,北海道上川郡比布町市街地,142.471294,43.874478,0000-00-00,0000-00-00,0,1111507
1111508,1111508,北比布,キタピップ,Kita-Pippu,北比布,기타핏푸,35,,,,11115,1,078-0325,北海道上川郡比布町北５線１０号,142.476545,43.901728,1955-12-02,2021-03-13,2,1111508
1111509,1111509,蘭留,ランル,Ranru,兰留,란루,36,,,,11115,1,078-0329,北海道上川郡比布町北９線１４号,142.473699,43.925072,0000-00-00,0000-00-00,0,1111509
1111510,1111510,塩狩,シオカリ,Shiokari,盐狩,시오카리,37,,,,11115,1,098-0125,北海道上川郡和寒町塩狩,142.4552,43.96794,0000-00-00,0000-00-00,0,1111510
1111511,1111511,和寒,ワッサム,Wassamu,和寒,왓사무,38,,,,11115,1,098-0133,北海道上川郡和寒町北町,142.415309,44.026932,0000-00-00,0000-00-00,0,1111511
1111512,1111512,東六線,ヒガシロクセン,Higashi-Rokusen,东六线,히가시로쿠센,39,,,,11115,1,098-0300,北海道上川郡剣淵町第１０区,142.388073,44.068723,0000-00-00,2021-03-13,2,1111512
1111513,1111513,剣淵,ケンブチ,Kembuchi,剑渊,겐부치,40,,,,11115,1,098-0300,北海道上川郡剣淵町栄町,142.364754,44.09643,0000-00-00,0000-00-00,0,1111513
1111514,1111514,北剣淵,キタケンブチ,Kita-Kembuchi,北剑渊,기타켄부치,41,,,,11115,1,098-0300,北海道上川郡剣淵町第１３区,142.377955,44.139423,1959-11-01,2021-03-13,2,1111514
1111515,1111515,士別,シベツ,Shibetsu,士别,시베쓰,42,,,,11115,1,095-0023,北海道士別市西３条８丁目,142.388247,44.172536,0000-00-00,0000-00-00,0,1111515
1111516,1111516,下士別,シモシベツ,Shimo-Shibetsu,下士别,시모시베쓰,43,,,,11115,1,095-0061,北海道士別市下士別町,142.396405,44.210583,1955-12-02,2021-03-13,2,1111516
1111517,1111517,多寄,タヨロ,Tayoro,多寄,다요로,44,,,,11115,1,098-0475,北海道士別市多寄町３６線東,142.396315,44.241296,0000-00-00,0000-00-00,0,1111517
1111518,1111518,瑞穂,ミズホ,Mizuho,瑞穗,미즈호,45,,,,11115,1,098-0475,北海道士別市多寄町３１線東,142.396244,44.266349,0000-00-00,0000-00-00,0,1111518
1111519,1111519,風連,フウレン,Fūren,风连,후렌,46,,,,11115,1,098-0504,北海道名寄市風連町本町,142.421624,44.292238,0000-00-00,0000-00-00,0,1111519
1111520,1111520,名寄高校,ナヨロコウコウ,Nayorokōkō,名寄高校,나요로고등학교,47,,,,11115,1,098-0512,北海道名寄市風連町東風連,142.465482,44.33093881,0000-00-00,0000-00-00,0,1111520
1111521,1111521,名寄,ナヨロ,Nayoro,名寄,나요로,48,,,,11115,1,096-0001,北海道名寄市東１条南６丁目,142.465207,44.349403,0000-00-00,0000-00-00,0,1111521
1111522,1111522,日進,ニッシン,Nisshin,日进,닛신,49,,,,11115,1,096-0066,北海道名寄市字日進,142.467354,44.381713,0000-00-00,0000-00-00,0,1111522
1111523,1111523,北星,ホクセイ,Hokusei,北星,호쿠세이,50,,,,11115,1,098-2181,北海道名寄市智恵文北星,142.428116,44.441569,1959-11-01,2021-03-13,2,1111523
1111524,1111524,智恵文,チエブン,Chiebun,智惠文,지에분,51,,,,11115,1,098-2181,北海道名寄市智恵文１１線,142.414772,44.455553,0000-00-00,0000-00-00,0,1111524
1111525,1111525,智北,チホク,Chioku,智北,지호쿠,52,,,,11115,1,098-2181,北海道名寄市字智恵文,142.394007,44.46103,0000-00-00,0000-00-00,0,1111525
1111526,1111526,南美深,ミナミビフカ,Minami-Bifuka,南美深,미나미비후카,53,,,,11115,1,098-2205,北海道中川郡美深町字美深,142.367822,44.462604,1956-07-01,2021-03-13,2,1111526
1111527,1111527,美深,ビフカ,Bifuka,美深,비후카,54,,,,11115,1,098-2238,北海道中川郡美深町字開運町,142.350597,44.482951,0000-00-00,0000-00-00,0,1111527
1111528,1111528,初野,ハツノ,Hatsuno,初野,하쓰노,55,,,,11115,1,098-2211,北海道中川郡美深町字富岡,142.336129,44.512808,0000-00-00,0000-00-00,0,1111528
1111529,1111529,紋穂内,モンポナイ,Momponai,纹穗内,몬포나이,56,,,,11115,1,098-2366,北海道中川郡美深町字紋穂内,142.33357,44.538761,1911-11-03,2021-03-13,2,1111529
1111530,1111530,恩根内,オンネナイ,Onnenai,恩根内,온네나이,57,,,,11115,1,098-2361,北海道中川郡美深町字恩根内,142.309447,44.598486,0000-00-00,0000-00-00,0,1111530
1111531,1111531,豊清水,トヨシミズ,Toyoshimizu,丰清水,도요시미즈,58,,,,11115,1,098-2368,北海道中川郡美深町字清水,142.270342,44.639503,1946-10-10,2021-03-13,2,1111531
1111532,1111532,天塩川温泉,テシオガワオンセン,Teshiogawa-onsen,天盐川温泉,데시오가와 온천,59,,,,11115,1,098-2502,北海道中川郡音威子府村字咲来,142.258682,44.665041,0000-00-00,0000-00-00,0,1111532
1111533,1111533,咲来,サックル,Sakkuru,咲来,삿쿠루,60,,,,11115,1,098-2502,北海道中川郡音威子府村字咲来,142.267569,44.692702,0000-00-00,0000-00-00,0,1111533
1111534,1111534,音威子府,オトイネップ,Otoineppu,音威子府,오토이넷푸,61,,,,11115,1,098-2501,北海道中川郡音威子府村字音威子府,142.259883,44.729448,0000-00-00,0000-00-00,0,1111534
1111535,1111535,筬島,オサシマ,Osashima,筬岛,오사시마,62,,,,11115,1,098-2500,北海道中川郡音威子府村字物満内,142.197777,44.738883,0000-00-00,0000-00-00,0,1111535
1111536,1111536,佐久,サク,Saku,佐久,사쿠,63,,,,11115,1,098-2622,北海道中川郡中川町字佐久,142.048562,44.743986,0000-00-00,0000-00-00,0,1111536
1111537,1111537,天塩中川,テシオナカガワ,Teshio-Nakagawa,天盐中川,데시오나카가와,64,,,,11115,1,098-2802,北海道中川郡中川町字中川,142.075335,44.81186,0000-00-00,0000-00-00,0,1111537
1111538,1111538,歌内,ウタナイ,Utanai,歌内,우타나이,65,,,,11115,1,098-2801,北海道中川郡中川町字歌内,142.052162,44.880493,1923-11-10,2022-03-12,2,1111538
1111539,1111539,問寒別,トイカンベツ,Toikanbetsu,问寒别,도이칸베쓰,66,,,,11115,1,098-2943,北海道天塩郡幌延町字問寒別,142.025562,44.91233,0000-00-00,0000-00-00,0,1111539
1111540,1111540,糠南,ヌカナン,Nukanan,糠南,누카난,67,,,,11115,1,098-3200,北海道天塩郡幌延町字糠南,142.000931,44.920778,0000-00-00,0000-00-00,0,1111540
1111541,1111541,雄信内,オノップナイ,Onoppunai,雄信内,오놋푸나이,68,,,,11115,1,098-3251,北海道天塩郡幌延町字雄興,141.935888,44.911735,0000-00-00,0000-00-00,0,1111541
1111542,1111542,安牛,ヤスウシ,Yasuushi,安牛,야스우시,69,,,,11115,1,098-3226,北海道天塩郡幌延町字開進,141.894187,44.949809,1925-07-20,2021-03-13,2,1111542
1111543,1111543,南幌延,ミナミホロノベ,Minami-horonobe,南幌延,미나미호로노베,70,,,,11115,1,098-3200,北海道天塩郡幌延町字南幌延,141.884892,44.965084,0000-00-00,0000-00-00,0,1111543
1111544,1111544,上幌延,カミホロノベ,Kami-horonobe,上幌延,가미호로노베,71,,,,11115,1,098-3225,北海道天塩郡幌延町字上幌延,141.880905,44.985787,1925-07-20,2021-03-13,2,1111544
1111545,1111545,幌延,ホロノベ,Horonobe,幌延,호로노베,72,,,,11115,1,098-3211,北海道天塩郡幌延町１条南１丁目,141.84569,45.014503,0000-00-00,0000-00-00,0,1111545
1111546,1111546,下沼,シモヌマ,Shimonuma,下沼,시모누마,73,,,,11115,1,098-3228,北海道天塩郡幌延町字下沼,141.758218,45.037146,0000-00-00,0000-00-00,0,1111546
1111547,1111547,豊富,トヨトミ,Toyotomi,丰富,도요토미,74,,,,11115,1,098-4100,北海道天塩郡豊富町字上サロベツ,141.772088,45.104624,0000-00-00,0000-00-00,0,1111547
1111548,1111548,徳満,トクミツ,Tokumitsu,德滿,도쿠미쓰,75,,,,11115,1,098-4137,北海道天塩郡豊富町字徳満,141.751039,45.145838,1926-09-25,2021-03-13,2,1111548
1111549,1111549,兜沼,カブトヌマ,Kabutonuma,兜沼,가부토누마,76,,,,11115,1,098-4451,北海道天塩郡豊富町字兜沼,141.6972,45.220236,0000-00-00,0000-00-00,0,1111549
1111550,1111550,勇知,ユウチ,Yuchi,勇知,유치,77,,,,11115,1,098-4581,北海道稚内市字抜海村上勇知,141.685151,45.259339,0000-00-00,0000-00-00,0,1111550
1111551,1111551,抜海,バッカイ,Bakkai,拔海,밧카이,78,,,,11115,1,097-0036,北海道稚内市字抜海村クトネベツ,141.644576,45.316866,0000-00-00,0000-00-00,0,1111551
1111552,1111552,南稚内,ミナミワッカナイ,Minami-Wakkanai,南稚内,미나미왓카나이,79,,,,11115,1,097-0005,北海道稚内市大黒１丁目,141.683026,45.398166,0000-00-00,0000-00-00,0,1111552
1111553,1111553,稚内,ワッカナイ,Wakkanai,稚内,왓카나이,80,,,,11115,1,097-0022,北海道稚内市中央３丁目,141.676999,45.416995,0000-00-00,0000-00-00,0,1111553
1111601,1110342,旭川,アサヒカワ,Asahikawa,旭川,아사히카와,28,,,,11116,1,070-0030,北海道旭川市宮下通８丁目,142.357803,43.763492,0000-00-00,0000-00-00,0,1111601
1111602,1111502,旭川四条,アサヒカワヨジョウ,Asahikawayojō,旭川四条,아사히카와요조,29,,,,11116,1,078-8214,北海道旭川市四条通１８丁目,142.375815,43.764056,0000-00-00,0000-00-00,0,1111602
1111603,1111503,新旭川,シンアサヒカワ,Shin-Asahikawa,新旭川,신아사히카와,30,,,,11116,1,070-0028,北海道旭川市東八条６丁目,142.384789,43.780174,0000-00-00,0000-00-00,0,1111603
1111604,1111604,南永山,ミナミナガヤマ,Minami-Nagayama,南永山,미나미나가야마,31,,,,11116,1,079-8420,北海道旭川市永山十条３丁目,142.40853,43.78055,0000-00-00,0000-00-00,0,1111604
1111605,1111605,東旭川,ヒガシアサヒカワ,Higashi-Asahikawa,东旭川,히가시아사히카와,32,,,,11116,1,078-8253,北海道旭川市東旭川北三条５丁目,142.441544,43.776571,0000-00-00,0000-00-00,0,1111605
1111606,1111606,北日ノ出,キタヒノデ,Kita-Hinode,北日之出,기타히노데,33,,,,11116,1,078-8203,北海道旭川市東旭川町日ノ出,142.466127,43.781813,1960-05-02,2021-03-13,2,1111606
1111607,1111607,桜岡,サクラオカ,Sakuraoka,樱冈,사쿠라오카,34,,,,11116,1,078-8204,北海道旭川市東旭川町桜岡,142.486968,43.801812,0000-00-00,0000-00-00,0,1111607
1111608,1111608,当麻,トウマ,Tōma,当麻,도마,35,,,,11116,1,078-1300,北海道上川郡当麻町市街,142.516987,43.825477,0000-00-00,0000-00-00,0,1111608
1111609,1111609,将軍山,ショウグンザン,Shōgunzan,将军山,쇼군잔,36,,,,11116,1,078-1334,北海道上川郡当麻町北星２区,142.521559,43.857455,1960-05-02,2021-03-13,2,1111609
1111610,1111610,伊香牛,イカウシ,Ikaushi,伊香牛,이카우시,37,,,,11116,1,078-1333,北海道上川郡当麻町伊香牛,142.525227,43.876025,0000-00-00,0000-00-00,0,1111610
1111611,1111611,愛別,アイベツ,Aibetsu,爱别,아이베쓰,38,,,,11116,1,078-1401,北海道上川郡愛別町字愛別,142.582176,43.898635,0000-00-00,0000-00-00,0,1111611
1111612,1111612,中愛別,ナカアイベツ,Naka-Aibetsu,中爱别,나카아이베쓰,39,,,,11116,1,078-1652,北海道上川郡愛別町字中央,142.655424,43.896216,0000-00-00,0000-00-00,0,1111612
1111613,1111613,愛山,アイザン,Aizan,爱山,아이잔,40,,,,11116,1,078-1653,北海道上川郡愛別町字愛山,142.680699,43.866442,0000-00-00,0000-00-00,0,1111613
1111614,1111614,安足間,アンタロマ,Antaroma,安足间,안타로마,41,,,,11116,1,078-1653,北海道上川郡愛別町字愛山,142.693868,43.852011,0000-00-00,0000-00-00,0,1111614
1111615,1111615,東雲,トウウン,Tōun,东云,도운,42,,,,11116,1,078-1731,北海道上川郡上川町東雲,142.716544,43.843693,1960-05-02,2021-03-13,2,1111615
1111616,1111616,上川,カミカワ,Kamikawa,上川,가미카와,43,,,,11116,1,078-1741,北海道上川郡上川町中央町,142.766895,43.848508,0000-00-00,0000-00-00,0,1111616
1111617,1111617,上白滝,カミシラタキ,Kami-Shirataki,上白泷,가미시라타키,44,,,,11116,1,099-0127,北海道紋別郡遠軽町上白滝,143.1444,43.876501,1932-10-01,2016-03-26,2,1111617
1111618,1111618,白滝,シラタキ,Shirataki,白泷,시라타키,45,,,,11116,1,099-0111,北海道紋別郡遠軽町白滝,143.180795,43.884435,0000-00-00,0000-00-00,0,1111618
1111619,1111619,旧白滝,キュウシラタキ,Kyū-Shirataki,旧白泷,규시라타키,46,,,,11116,1,099-0102,北海道紋別郡遠軽町旧白滝,143.236729,43.919905,1947-02-11,2016-03-26,2,1111619
1111620,1111620,下白滝,シモシラタキ,Shimo-Shirataki,下白泷,시모시라타키,47,,,,11116,1,099-0101,北海道紋別郡遠軽町下白滝,143.276088,43.944553,1929-08-12,2016-03-26,2,1111620
1111621,1111621,丸瀬布,マルセップ,Maruseppu,丸濑布,마루셋푸,48,,,,11116,1,099-0203,北海道紋別郡遠軽町丸瀬布中町,143.335817,44.006354,0000-00-00,0000-00-00,0,1111621
1111622,1111622,瀬戸瀬,セトセ,Setose,濑户濑,세토세,49,,,,11116,1,099-0342,北海道紋別郡遠軽町字瀬戸瀬西町,143.420937,44.008753,0000-00-00,0000-00-00,0,1111622
1111623,1111623,遠軽,エンガル,Engaru,远轻,엔가루,50,,,,11116,1,099-0415,北海道紋別郡遠軽町岩見通南１丁目,143.520667,44.060278,0000-00-00,0000-00-00,0,1111623
1111624,1111624,安国,ヤスクニ,Yasukuni,安国,야스쿠니,51,,,,11116,1,099-0622,北海道紋別郡遠軽町生田原安国,143.535762,43.993322,0000-00-00,0000-00-00,0,1111624
1111625,1111625,生野,イクノ,Ikuno,生野,이쿠노,52,,,,11116,1,099-0701,北海道紋別郡遠軽町生田原,143.532945,43.959928,1946-12-01,2021-03-13,2,1111625
1111626,1111626,生田原,イクタハラ,Ikutahara,生田原,이쿠타하라,53,,,,11116,1,099-0701,北海道紋別郡遠軽町生田原,143.534627,43.923674,0000-00-00,0000-00-00,0,1111626
1111627,1111627,金華,カネハナ,Kanehana,金华,가네하나,54,,,,11116,1,091-0021,北海道北見市留辺蘂町金華,143.57114,43.803484,1914-10-05,2016-03-26,2,1111627
1111628,1111628,西留辺蘂,ニシルベシベ,Nishi-Rubeshibe,西留边蘂,니시루베시베,55,,,,11116,1,091-0027,北海道北見市留辺蘂町旭西３３４番地の１,143.603257,43.785345,0000-00-00,0000-00-00,0,1111628
1111629,1111629,留辺蘂,ルベシベ,Rubeshibe,留边蘂,루베시베,56,,,,11116,1,091-0002,北海道北見市留辺蘂町東町,143.621394,43.785534,0000-00-00,0000-00-00,0,1111629
1111630,1111630,相内,アイノナイ,Ainonai,相内,아이노나이,57,,,,11116,1,099-0871,北海道北見市相内町,143.756449,43.795948,0000-00-00,0000-00-00,0,1111630
1111631,1111631,東相内,ヒガシアイノナイ,Higashi-Ainonai,东相内,히가시아이노나이,58,,,,11116,1,099-0878,北海道北見市東相内町,143.809499,43.805466,0000-00-00,0000-00-00,0,1111631
1111632,1111632,西北見,ニシキタミ,Nishi-Kitami,西北见,기타미,59,,,,11116,1,090-0055,北海道北見市緑町６丁目,143.841586,43.803114,0000-00-00,0000-00-00,0,1111632
1111633,1111633,北見,キタミ,Kitami,北见,니시기타미,60,,,,11116,1,090-0040,北海道北見市大通西１丁目,143.898167,43.805504,0000-00-00,0000-00-00,0,1111633
1111634,1111634,柏陽,ハクヨウ,Hakuyō,柏阳,이토시노,61,,,,11116,1,090-0012,北海道北見市並木町,143.916737,43.824911,0000-00-00,0000-00-00,0,1111634
1111635,1111635,愛し野,イトシノ,Itoshino,爱野,하쿠요,62,,,,11116,1,099-2103,北海道北見市端野町三区,143.932962,43.841426,0000-00-00,0000-00-00,0,1111635
1111636,1111636,端野,タンノ,Tanno,端野,히우시나이,63,,,,11116,1,099-2104,北海道北見市端野町端野,143.942336,43.851172,0000-00-00,0000-00-00,0,1111636
1111637,1111637,緋牛内,ヒウシナイ,Hiushinai,绯牛内,단노,64,,,,11116,1,099-2231,北海道北見市端野町緋牛内,143.999887,43.880431,0000-00-00,0000-00-00,0,1111637
1111638,1111638,美幌,ビホロ,Bihoro,美幌,비호로,65,,,,11116,1,092-0015,北海道網走郡美幌町字新町３丁目,144.10563,43.836967,0000-00-00,0000-00-00,0,1111638
1111639,1111639,西女満別,ニシメマンベツ,Nishi-Memambetsu,西女满别,니시메만베쓰,66,,,,11116,1,099-2301,北海道網走郡大空町女満別本郷,144.148372,43.880057,0000-00-00,0000-00-00,0,1111639
1111640,1111640,女満別,メマンベツ,Memambetsu,女满别,메만베쓰,67,,,,11116,1,099-2310,北海道網走郡大空町女満別本通１丁目,144.170665,43.915886,0000-00-00,0000-00-00,0,1111640
1111641,1111641,呼人,ヨビト,Yobito,呼人,요비토,68,,,,11116,1,099-2421,北海道網走市呼人,144.218945,43.963695,0000-00-00,0000-00-00,0,1111641
1111642,1111642,網走,アバシリ,Abashiri,网走,아바시리,69,,,,11116,1,093-0046,北海道網走市新町２丁目,144.254156,44.019873,0000-00-00,0000-00-00,0,1111642
1111701,1111642,網走,アバシリ,Abashiri,网走,아바시리,,69,,,11117,1,093-0046,北海道網走市新町２丁目,144.254156,44.019873,0000-00-00,0000-00-00,0,1111701
1111702,1111702,桂台,カツラダイ,Katsuradai,桂台,가쓰라다이,79,,,,11117,1,093-0031,北海道網走市台町１丁目,144.273223,44.016913,0000-00-00,0000-00-00,0,1111702
1111703,1111703,鱒浦,マスウラ,Masuura,鳟浦,마스우라,78,,,,11117,1,099-3119,北海道網走市字鱒浦,144.296526,43.982481,0000-00-00,0000-00-00,0,1111703
1111704,1111704,藻琴,モコト,Mokoto,藻琴,모코토,77,,,,11117,1,099-3111,北海道網走市字藻琴,144.320079,43.968358,0000-00-00,0000-00-00,0,1111704
1111705,1111705,北浜,キタハマ,Kitahama,北滨,기타하마,76,,,,11117,1,099-3112,北海道網走市字北浜,144.352541,43.958549,0000-00-00,0000-00-00,0,1111705
1111706,1111706,原生花園,ゲンセイカエン,Genseikaen,原生花园,겐세이카엔,75,,,,11117,1,099-3452,北海道斜里郡小清水町浜小清水,144.41443,43.941033,0000-00-00,0000-00-00,0,1111706
1111707,1111707,浜小清水,ハマコシミズ,Hama-Koshimizu,滨小清水,하마코시미즈,74,,,,11117,1,099-3452,北海道斜里郡小清水町字浜小清水,144.453187,43.934077,0000-00-00,0000-00-00,0,1111707
1111708,1111708,止別,ヤムベツ,Yamubetsu,止别,야무베쓰,73,,,,11117,1,099-3454,北海道斜里郡小清水町字止別,144.519818,43.921558,0000-00-00,0000-00-00,0,1111708
1111709,1111709,知床斜里,シレトコシャリ,Shiretoko-Shari,知床斜里,시레토코샤리,72,,,,11117,1,099-4112,北海道斜里郡斜里町港町,144.661647,43.910749,0000-00-00,0000-00-00,0,1111709
1111710,1111710,中斜里,ナカシャリ,Naka-Shari,中斜里,나카샤리,71,,,,11117,1,099-4142,北海道斜里郡斜里町字中斜里,144.659033,43.874608,0000-00-00,0000-00-00,0,1111710
1111711,1111711,南斜里,ミナミシャリ,Minami-Shari,南斜里,미나미샤리,70,,,,11117,1,099-4143,北海道斜里郡斜里町字川上,144.63431,43.867531,1962-10-01,2021-03-13,2,1111711
1111712,1111712,清里町,キヨサトチョウ,Kiyosatocho,清里町,기요사토초,69,,,,11117,1,099-4406,北海道斜里郡清里町水元町,144.593948,43.83871,0000-00-00,0000-00-00,0,1111712
1111713,1111713,札弦,サッツル,Sattsuru,札弦,삿쓰루,68,,,,11117,1,099-4521,北海道斜里郡清里町札弦町,144.531526,43.786574,0000-00-00,0000-00-00,0,1111713
1111714,1111714,緑,ミドリ,Midori,绿,미도리,67,,,,11117,1,099-4525,北海道斜里郡清里町緑町,144.505499,43.718282,0000-00-00,0000-00-00,0,1111714
1111715,1111715,川湯温泉,カワユオンセン,Kawayu-Onsen,川汤温泉,가와유 온천,66,,,,11117,1,088-3462,北海道川上郡弟子屈町字川湯駅前,144.457749,43.616258,0000-00-00,0000-00-00,0,1111715
1111716,1111716,美留和,ビルワ,Biruwa,美留和,비루와,65,,,,11117,1,088-3331,北海道川上郡弟子屈町字美留和,144.437656,43.555316,0000-00-00,0000-00-00,0,1111716
1111717,1111717,摩周,マシュウ,Mashū,摩周,마슈,64,,,,11117,1,088-3204,北海道川上郡弟子屈町字朝日１丁目,144.463981,43.487373,0000-00-00,0000-00-00,0,1111717
1111718,1111718,南弟子屈,ミナミテシカガ,Minami-Teshikaga,南弟子屈,미나미테시카가,63,,,,11117,1,088-3200,北海道川上郡弟子屈町字熊牛原野,144.514729,43.428656,1929-08-15,2020-03-14,2,1111718
1111719,1111719,磯分内,イソブンナイ,Isobunnai,矶分内,이소분나이,62,,,,11117,1,088-2300,北海道川上郡標茶町字熊牛原野,144.554322,43.379389,0000-00-00,0000-00-00,0,1111719
1111720,1111720,標茶,シベチャ,Shibecha,标茶,시베차,61,,,,11117,1,088-2314,北海道川上郡標茶町字標茶,144.608434,43.298472,0000-00-00,0000-00-00,0,1111720
1111721,1111721,五十石,ゴジッコク,Gojikkoku,五十石,고짓코쿠,60,,,,11117,1,088-2331,北海道川上郡標茶町オソツベツ原野,144.545558,43.238771,1927-09-15,2017-03-04,2,1111721
1111722,1111722,茅沼,カヤヌマ,Kayanuma,茅沼,가야누마,59,,,,11117,1,088-2265,北海道川上郡標茶町シラルトロエトロ,144.503788,43.202097,0000-00-00,0000-00-00,0,1111722
1111723,1111723,塘路,トウロ,Tōro,塘路,도로,58,,,,11117,1,088-2261,北海道川上郡標茶町字塘路,144.496817,43.151739,0000-00-00,0000-00-00,0,1111723
1111724,1111724,細岡,ホソオカ,Hosooka,细冈,호소오카,57,,,,11117,1,088-2148,北海道釧路郡釧路町字鳥通牛原野,144.469683,43.105055,0000-00-00,0000-00-00,0,1111724
1111725,1111725,釧路湿原,クシロシツゲン,Kushiroshitsugen,钏路湿原,구시로 습원,56,,,,11117,1,088-2148,北海道釧路郡釧路町鳥通原野,144.447799,43.100647,0000-00-00,0000-00-00,0,1111725
1111726,1111726,遠矢,トオヤ,Tōya,远矢,도야,55,,,,11117,1,088-2145,北海道釧路郡釧路町字遠矢,144.458367,43.047878,0000-00-00,0000-00-00,0,1111726
1111727,1110802,東釧路,ヒガシクシロ,Higashi-Kushiro,东钏路,히가시쿠시로,54,,,,11117,1,085-0816,北海道釧路市貝塚２丁目,144.411307,42.995207,0000-00-00,0000-00-00,0,1111727
1111728,1110731,釧路,クシロ,Kushiro,钏路,구시로,,,53,,11117,1,085-0015,北海道釧路市北大通１４丁目,144.381983,42.990584,0000-00-00,0000-00-00,0,1111728
1111801,1111801,中小国,ナカオグニ,Naka-Oguni,中小国,나카오구니,,,,,11118,2,030-1305,青森県東津軽郡外ヶ浜町蟹田小国,140.596798,41.051702,0000-00-00,0000-00-00,0,1111801
1111802,1111802,奥津軽いまべつ,オクツガルイマベツ,Okutsugaru-Imabetsu,奥津轻今别,오쿠쓰가루이마베쓰,,,,,11118,2,030-1505,青森県東津軽郡今別町大字大川平字清川91-1,140.515625,41.144885,0000-00-00,0000-00-00,0,1111802
1111803,1111803,竜飛海底,タッピカイテイ,Tappi-kaitei,龙飞海底,닷피 해저,,,,,11118,2,030-1400,青森県東津軽郡外ヶ浜町三厩宇鉄立浜,140.347946,41.257228,1988-03-13,2014-03-14,2,1111803
1111804,1111804,吉岡海底,ヨシオカカイテイ,Yoshioka-kaitei,吉冈海底,요시오카 해저,,,,,11118,1,049-1454,北海道松前郡福島町館崎,140.239354,41.442162,1988-03-13,2014-03-14,2,1111804
1111805,1111805,知内,シリウチ,Shiriuchi,知内,시리우치,,,,,11118,1,049-1221,北海道上磯郡知内町湯ノ里,140.33494,41.601092,1990-07-01,2014-03-14,2,1111805
1111806,1111806,木古内,キコナイ,Kikonai,木古内,기코나이,,,,,11118,1,049-0422,北海道上磯郡木古内町本町,140.434004,41.677642,1930-10-25,0000-00-00,0,1111806
1111901,1111901,江差,エサシ,Esashi,江差,에사시,,,,,11119,1,043-0056,北海道檜山郡江差町字陣屋町,140.127933,41.856727,1936-11-10,2014-05-12,2,1111901
1111902,1111902,上ノ国,カミノクニ,Kaminokuni,上之国,가미노쿠니,,,,,11119,1,049-0611,北海道檜山郡上ノ国町字大留,140.124106,41.805567,1936-11-10,2014-05-12,2,1111902
1111903,1111903,中須田,ナカスダ,Nakasuda,中须田,나카스다,,,,,11119,1,049-0624,北海道檜山郡上ノ国町字中須田,140.149321,41.787214,0000-00-00,2014-05-12,2,1111903
1111904,1111904,桂岡,カツラオカ,Katsuraoka,桂冈,가쓰라오카,,,,,11119,1,049-0626,北海道檜山郡上ノ国町字桂岡,140.166071,41.773096,1936-11-10,2014-05-12,2,1111904
1111905,1111905,宮越,ミヤコシ,Miyakoshi,宫越,미야코시,,,,,11119,1,049-0564,北海道檜山郡上ノ国町字早瀬,140.184998,41.762404,1964-12-30,2014-05-12,2,1111905
1111906,1111906,湯ノ岱,ユノタイ,Yunotai,汤之岱,유노타이,,,,,11119,1,049-0562,北海道檜山郡上ノ国町字湯ノ岱,140.243698,41.750312,1935-12-10,2014-05-12,2,1111906
1111907,1111907,神明,シンメイ,Shinmei,神明,신메이,,,,,11119,1,049-0561,北海道檜山郡上ノ国町字神明,140.265709,41.734481,1957-01-25,2014-05-12,2,1111907
1111908,1111908,吉堀,ヨシボリ,Yoshibori,吉堀,요시보리,,,,,11119,1,049-0453,北海道上磯郡木古内町字大川,140.379226,41.684059,1935-12-10,2014-05-12,2,1111908
1111909,1111909,渡島鶴岡,オシマツルオカ,Oshima-tsuruoka,渡岛鹤冈,오시마쓰루오카,,,,,11119,1,049-0455,北海道上磯郡木古内町字鶴岡,140.41137,41.671014,1964-12-30,2014-05-12,2,1111909
1111910,1111806,木古内,キコナイ,Kikonai,木古内,기코나이,01,,,,99108,1,049-0422,北海道上磯郡木古内町本町,140.434004,41.677642,0000-00-00,0000-00-00,0,1111910
1111911,1111911,札苅,サツカリ,Satsukari,札苅,사쓰카리,02,,,,99108,1,049-0411,北海道上磯郡木古内町字札苅,140.468097,41.699271,0000-00-00,0000-00-00,0,1111911
1111912,1111912,泉沢,イズミサワ,Izumisawa,泉泽,이즈미사와,03,,,,99108,1,049-0405,北海道上磯郡木古内町字泉沢,140.506797,41.700867,0000-00-00,0000-00-00,0,1111912
1111913,1111913,釜谷,カマヤ,Kamaya,釜谷,가마야,04,,,,99108,1,049-0403,北海道上磯郡木古内町字釜谷,140.53718,41.712153,0000-00-00,0000-00-00,0,1111913
1111914,1111914,渡島当別,オシマトウベツ,Oshima-Tobetsu,渡岛当别,오시마토베쓰,05,,,,99108,1,049-0282,北海道北斗市当別,140.579109,41.737309,1930-10-25,0000-00-00,0,1111914
1111915,1111915,茂辺地,モヘジ,Moheji,茂边地,모헤지,06,,,,99108,1,049-0281,北海道北斗市茂辺地,140.600561,41.766604,0000-00-00,0000-00-00,0,1111915
1111916,1111916,上磯,カミイソ,Kamiiso,上矶,가미이소,07,,,,99108,1,049-0161,北海道北斗市飯生,140.640599,41.81956,0000-00-00,0000-00-00,0,1111916
1111917,1111917,清川口,キヨカワグチ,Kiyokawaguchi,清川口,기요카와구치,08,,,,99108,1,049-0100,北海道北斗市会所町,140.652906,41.824615,0000-00-00,0000-00-00,0,1111917
1111918,1111918,久根別,クネベツ,Kunebetsu,久根别,구네베쓰,09,,,,99108,1,049-0121,北海道北斗市久根別,140.666468,41.826727,0000-00-00,0000-00-00,0,1111918
1111919,1111919,東久根別,ヒガシクネベツ,Higashi-Kunebetsu,东久根别,히가시쿠네베쓰,10,,,,99108,1,049-0121,北海道北斗市久根別,140.679731,41.826005,0000-00-00,0000-00-00,0,1111919
1111920,1111920,七重浜,ナナエハマ,Nanaehama,七重滨,나나에하마,11,,,,99108,1,049-0111,北海道北斗市七重浜２丁目,140.707957,41.817643,0000-00-00,0000-00-00,0,1111920
1111921,1110102,五稜郭,ゴリョウカク,Goryōkaku,五棱郭,고료카쿠,,74,,,99108,1,041-0813,北海道函館市亀田本町,140.733539,41.803557,0000-00-00,0000-00-00,0,1111921
1111922,1110101,函館,ハコダテ,Hakodate,函馆,하코다테,,75,,,99108,1,040-0063,北海道函館市若松町,140.726413,41.773709,0000-00-00,0000-00-00,0,1111922
1120101,1120601,八戸,ハチノヘ,Hachinohe,八户,하치노헤,,,,,11201,2,039-1101,青森県八戸市尻内町,141.431499,40.5092,0000-00-00,0000-00-00,2,1120101
1120201,1120201,新庄,シンジョウ,Shinjō,新庄,신조,,,,,11202,6,996-0024,山形県新庄市多門町,140.306064,38.76256,0000-00-00,0000-00-00,0,1120201
1120202,1120202,泉田,イズミタ,Izumita,泉田,이즈미타,,,,,11202,6,999-5103,山形県新庄市大字泉田,140.310039,38.811758,0000-00-00,0000-00-00,0,1120202
1120203,1120203,羽前豊里,ウゼントヨサト,Uzen-Toyosato,羽前丰里,우젠토요사토,,,,,11202,6,999-5208,山形県最上郡鮭川村大字石名坂,140.242247,38.836748,0000-00-00,0000-00-00,0,1120203
1120204,1120204,真室川,マムロガワ,Mamurogawa,真室川,마무로가와,,,,,11202,6,999-5312,山形県最上郡真室川町大字新町,140.254814,38.858243,0000-00-00,0000-00-00,0,1120204
1120205,1120205,釜淵,カマブチ,Kamabuchi,釜渊,가마부치,,,,,11202,6,999-5604,山形県最上郡真室川町大字釜淵,140.263864,38.93281,0000-00-00,0000-00-00,0,1120205
1120206,1120206,大滝,オオタキ,Ōtaki,大泷,오타키,,,,,11202,6,999-5603,山形県最上郡真室川町大字大滝,140.320199,38.971485,0000-00-00,0000-00-00,0,1120206
1120207,1120207,及位,ノゾキ,Nozoki,及位,노조키,,,,,11202,6,999-5602,山形県最上郡真室川町大字及位,140.361164,38.992983,0000-00-00,0000-00-00,0,1120207
1120208,1120208,院内,インナイ,Innai,院内,인나이,,,,,11202,5,019-0111,秋田県湯沢市上院内,140.4138,39.049706,0000-00-00,0000-00-00,0,1120208
1120209,1120209,横堀,ヨコボリ,Yokobori,横堀,요코보리,,,,,11202,5,019-0205,秋田県湯沢市小野,140.45131,39.064533,0000-00-00,0000-00-00,0,1120209
1120210,1120210,三関,ミツセキ,Mitsuseki,三关,미쓰세키,,,,,11202,5,012-0864,秋田県湯沢市上関,140.483796,39.110196,0000-00-00,0000-00-00,0,1120210
1120211,1120211,上湯沢,カミユザワ,Kami-Yuzawa,上汤泽,가미유자와,,,,,11202,5,012-0862,秋田県湯沢市関口,140.485262,39.134221,0000-00-00,0000-00-00,0,1120211
1120212,1120212,湯沢,ユザワ,Yuzawa,汤泽,유자와,,,,,11202,5,012-0827,秋田県湯沢市表町,140.487011,39.163443,0000-00-00,0000-00-00,0,1120212
1120213,1120213,下湯沢,シモユザワ,Shimo-Yuzawa,下汤泽,시모유자와,,,,,11202,5,012-0802,秋田県湯沢市成沢,140.50249,39.197196,0000-00-00,0000-00-00,0,1120213
1120214,1120214,十文字,ジュウモンジ,Jūmonji,十文字,주몬지,,,,,11202,5,019-0527,秋田県横手市十文字町字大道東,140.526287,39.221186,0000-00-00,0000-00-00,0,1120214
1120215,1120215,醍醐,ダイゴ,Daigo,醍醐,다이고,,,,,11202,5,013-0102,秋田県横手市平鹿町醍醐,140.53853,39.248716,0000-00-00,0000-00-00,0,1120215
1120216,1120216,柳田,ヤナギタ,Yanagita,柳田,야나기타,,,,,11202,5,013-0054,秋田県横手市柳田,140.553856,39.276385,0000-00-00,0000-00-00,0,1120216
1120217,1120217,横手,ヨコテ,Yokote,横手,요코테,,,,,11202,5,013-0036,秋田県横手市駅前町,140.5604,39.310146,0000-00-00,0000-00-00,0,1120217
1120218,1120218,後三年,ゴサンネン,Gosannen,后三年,고산넨,,,,,11202,5,019-1234,秋田県仙北郡美郷町飯詰,140.538397,39.364891,0000-00-00,0000-00-00,0,1120218
1120219,1120219,飯詰,イイヅメ,Iizume,饭诘,이즈메,,,,,11202,5,019-1236,秋田県仙北郡美郷町上深井,140.515378,39.406013,0000-00-00,0000-00-00,0,1120219
1120220,1120220,大曲,オオマガリ,Ōmagari,大曲,오마가리,,,,,11202,5,014-0027,秋田県大仙市大曲通町,140.479628,39.465712,0000-00-00,0000-00-00,0,1120220
1120221,1120221,神宮寺,ジングウジ,Jingūji,神宫寺,진구지,,,,,11202,5,019-1701,秋田県大仙市神宮寺,140.426518,39.494841,0000-00-00,0000-00-00,0,1120221
1120222,1120222,刈和野,カリワノ,Kariwano,刈和野,가리와노,,,,,11202,5,019-2112,秋田県大仙市刈和野,140.372402,39.547646,0000-00-00,0000-00-00,0,1120222
1120223,1120223,峰吉川,ミネヨシカワ,Mineyoshikawa,峰吉川,미네요시카와,,,,,11202,5,019-2431,秋田県大仙市協和峰吉川,140.32314,39.566586,0000-00-00,0000-00-00,0,1120223
1120224,1120224,羽後境,ウゴサカイ,Ugo-Sakai,羽后境,우고사카이,,,,,11202,5,019-2411,秋田県大仙市協和境,140.320722,39.618679,0000-00-00,0000-00-00,0,1120224
1120225,1120225,大張野,オオバリノ,Ōbarino,大张野,오바리노,,,,,11202,5,019-2631,秋田県秋田市河辺神内,140.274071,39.663347,0000-00-00,0000-00-00,0,1120225
1120226,1120226,和田,ワダ,Wada,和田,와다,,,,,11202,5,019-2601,秋田県秋田市河辺和田,140.218754,39.65087,0000-00-00,0000-00-00,0,1120226
1120227,1120227,四ツ小屋,ヨツゴヤ,Yotsugoya,四小屋,요쓰고야,,,,,11202,5,010-1417,秋田県秋田市四ツ小屋,140.144946,39.661341,0000-00-00,0000-00-00,0,1120227
1120228,1120228,秋田,アキタ,Akita,秋田,아키타,,,,,11202,5,010-0001,秋田県秋田市中通７丁目,140.129931,39.716748,0000-00-00,0000-00-00,0,1120228
1120267,1120267,泉外旭川,イズミソトアサヒカワ,Izumi-Sotoasahikawa,秋田,아키타,,,,,11202,5,010-0817,秋田県秋田市泉菅野二丁目18番,140.112181,39.73835,2021-03-13,0000-00-00,0,1120228
1120229,1120229,土崎,ツチザキ,Tsuchizaki,土崎,쓰치자키,,,,,11202,5,011-0946,秋田県秋田市土崎港中央６丁目,140.073601,39.758453,0000-00-00,0000-00-00,0,1120229
1120230,1120230,上飯島,カミイイジマ,Kami-Ijima,上饭岛,가미이지마,,,,,11202,5,011-0911,秋田県秋田市飯島,140.06847,39.779336,0000-00-00,0000-00-00,0,1120230
1120231,1120231,追分,オイワケ,Oiwake,追分,오이와케,,,,,11202,5,010-0126,秋田県秋田市金足追分,140.05781,39.809925,0000-00-00,0000-00-00,0,1120231
1120232,1120232,大久保,オオクボ,Ōkubo,大久保,오쿠보,,,,,11202,5,018-1401,秋田県潟上市昭和大久保,140.063079,39.87089,0000-00-00,0000-00-00,0,1120232
1120233,1120233,羽後飯塚,ウゴイイヅカ,Ugo-Iizuka,羽后饭冢,우고이즈카,,,,,11202,5,018-1504,秋田県潟上市飯田川飯塚,140.0733,39.898981,0000-00-00,0000-00-00,0,1120233
1120234,1120234,井川さくら,イカワサクラ,Ikawasakura,井川樱,이카와사쿠라,,,,,11202,5,018-1516,秋田県南秋田郡井川町浜井川,140.076022,39.911925,0000-00-00,0000-00-00,0,1120234
1120235,1120235,八郎潟,ハチロウガタ,Hachirōgata,八郎潟,하치로가타,,,,,11202,5,018-1614,秋田県南秋田郡八郎潟町字中田,140.078382,39.947366,0000-00-00,0000-00-00,0,1120235
1120236,1120236,鯉川,コイカワ,Koikawa,鲤川,고이카와,,,,,11202,5,018-2103,秋田県山本郡三種町鯉川,140.077474,39.996361,0000-00-00,0000-00-00,0,1120236
1120237,1120237,鹿渡,カド,Kado,鹿渡,가도,,,,,11202,5,018-2104,秋田県山本郡三種町鹿渡,140.082621,40.044619,0000-00-00,0000-00-00,0,1120237
1120238,1120238,森岳,モリタケ,Moritake,森岳,모리타케,,,,,11202,5,018-2303,秋田県山本郡三種町森岳,140.070886,40.103164,0000-00-00,0000-00-00,0,1120238
1120239,1120239,北金岡,キタカナオカ,Kita-Kanaoka,北金冈,기타카나오카,,,,,11202,5,018-2301,秋田県山本郡三種町志戸橋,140.063565,40.141895,0000-00-00,0000-00-00,0,1120239
1120240,1120240,東能代,ヒガシノシロ,Higashi-Noshiro,东能代,히가시노시로,,,,,11202,5,016-0121,秋田県能代市鰄渕,140.065746,40.191579,0000-00-00,0000-00-00,0,1120240
1120241,1120241,鶴形,ツルガタ,Tsurugata,鹤形,쓰루가타,,,,,11202,5,016-0131,秋田県能代市字鶴形,140.118507,40.203879,0000-00-00,0000-00-00,0,1120241
1120242,1120242,富根,トミネ,Tomine,富根,도미네,,,,,11202,5,018-3122,秋田県能代市二ツ井町飛根,140.172643,40.217956,0000-00-00,0000-00-00,0,1120242
1120243,1120243,二ツ井,フタツイ,Futatsui,二井,후타쓰이,,,,,11202,5,018-3143,秋田県能代市二ツ井町太田面,140.235729,40.212506,0000-00-00,0000-00-00,0,1120243
1120244,1120244,前山,マエヤマ,Maeyama,前山,마에야마,,,,,11202,5,018-3342,秋田県北秋田市前山,140.312378,40.214785,0000-00-00,0000-00-00,0,1120244
1120245,1120245,鷹ノ巣,タカノス,Takanosu,鹰之巢,다카노스,,,,,11202,5,018-3321,秋田県北秋田市松葉町,140.369816,40.232059,0000-00-00,0000-00-00,0,1120245
1120246,1120246,糠沢,ヌカザワ,Nukazawa,糠泽,누카자와,,,,,11202,5,018-3301,秋田県北秋田市綴子,140.397827,40.251094,0000-00-00,0000-00-00,0,1120246
1120247,1120247,早口,ハヤグチ,Hayaguchi,早口,하야구치,,,,,11202,5,018-3505,秋田県大館市早口,140.447572,40.271315,0000-00-00,0000-00-00,0,1120247
1120248,1120248,下川沿,シモカワゾイ,Shimo-Kawazoi,下川沿,시모카와조이,,,,,11202,5,017-0878,秋田県大館市川口,140.496625,40.276408,0000-00-00,0000-00-00,0,1120248
1120249,1120249,大館,オオダテ,Ōdate,大馆,오다테,,,,,11202,5,017-0044,秋田県大館市御成町１丁目,140.555946,40.288122,0000-00-00,0000-00-00,0,1120249
1120250,1120250,白沢,シラサワ,Shirasawa,白泽,시라사와,,,,,11202,5,017-0002,秋田県大館市白沢,140.591657,40.338103,0000-00-00,0000-00-00,0,1120250
1120251,1120251,陣場,ジンバ,Jimba,阵场,진바,,,,,11202,5,017-0001,秋田県大館市大字長走,140.607523,40.398864,0000-00-00,0000-00-00,0,1120251
1120252,1120252,津軽湯の沢,ツガルユノサワ,Tsugaruyunosawa,汤轻汤之泽,쓰가루유노사와,,,,,11202,2,038-0101,青森県平川市碇ケ関,140.632055,40.441879,0000-00-00,0000-00-00,0,1120252
1120253,1120253,碇ケ関,イカリガセキ,Ikarigaseki,碇关,이카리가세키,,,,,11202,2,038-0101,青森県平川市碇ヶ関高田13,140.622443,40.478988,0000-00-00,0000-00-00,0,1120253
1120254,1120254,長峰,ナガミネ,Nagamine,长峰,나가미네,,,,,11202,2,038-0202,青森県南津軽郡大鰐町大字長峰,140.603069,40.516072,0000-00-00,0000-00-00,0,1120254
1120255,1120255,大鰐温泉,オオワニオンセン,Ōwani-Onsen,大鳄温泉,오와니온센,,,,,11202,2,038-0211,青森県南津軽郡大鰐町大字大鰐字前田,140.566914,40.52154,0000-00-00,0000-00-00,0,1120255
1120256,1120256,石川,イシカワ,Ishikawa,石川,이시카와,,,,,11202,2,036-8124,青森県弘前市大字石川字野崎25-2,140.530951,40.556021,0000-00-00,0000-00-00,0,1120256
1120257,1120257,弘前,ヒロサキ,Hirosaki,弘前,히로사키,,,,,11202,2,036-8096,青森県弘前市表町,140.485016,40.599723,0000-00-00,0000-00-00,0,1120257
1120258,1120258,撫牛子,ナイジョウシ,Naijōshi,抚牛子,나이조시,,,,,11202,2,036-8075,青森県弘前市大字撫牛子,140.497616,40.621298,0000-00-00,0000-00-00,0,1120258
1120259,1120259,川部,カワベ,Kawabe,川部,가와베,,,,,11202,2,038-1141,青森県南津軽郡田舎館村大字川部,140.521376,40.646862,0000-00-00,0000-00-00,0,1120259
1120260,1120260,北常盤,キタトキワ,Kita-Tokiwa,北常盘,기타토키와,,,,,11202,2,038-1214,青森県南津軽郡藤崎町常盤,140.54359,40.67053,0000-00-00,0000-00-00,0,1120260
1120261,1120261,浪岡,ナミオカ,Namioka,浪冈,나미오카,,,,,11202,2,038-1311,青森県青森市浪岡浪岡,140.580664,40.71021,0000-00-00,0000-00-00,0,1120261
1120262,1120262,大釈迦,ダイシャカ,Daishaka,大释迦,다이샤카,,,,,11202,2,038-1301,青森県青森市浪岡大釈迦,140.587776,40.756736,0000-00-00,0000-00-00,0,1120262
1120263,1120263,鶴ケ坂,ツルガサカ,Tsurugasaka,鹤坂,쓰루가사카,,,,,11202,2,038-0045,青森県青森市大字鶴ケ坂字川合91-3,140.634878,40.791228,0000-00-00,0000-00-00,0,1120263
1120264,1120264,津軽新城,ツガルシンジョウ,Tsugaru-Shinjō,津轻新城,쓰가루신조,,,,,11202,2,038-0042,青森県青森市大字新城,140.672025,40.828022,0000-00-00,0000-00-00,0,1120264
1120265,1120265,新青森,シンアオモリ,Shin-Aomori,新青森,신아오모리,,,,,11202,2,038-0003,青森県青森市大字石江字高間140-2,140.693472,40.8275,1986-11-01,0000-00-00,0,1120265
1120266,1120120,青森,アオモリ,Aomori,青森,아오모리,,,,,11202,2,038-0012,青森県青森市柳川１丁目,140.734738,40.828668,0000-00-00,0000-00-00,0,1120266
1120301,1120110,野辺地,ノヘジ,Noheji,野边地,노헤지,,,,,11203,2,039-3131,青森県上北郡野辺地町大字野辺地,141.119603,40.855142,0000-00-00,0000-00-00,0,1120301
1120302,1120302,北野辺地,キタノヘジ,Kita-Noheji,北野边地,기타노헤지,,,,,11203,2,039-3131,青森県上北郡野辺地町大字野辺地,141.134115,40.871077,0000-00-00,0000-00-00,0,1120302
1120303,1120303,有戸,アリト,Arito,有户,아리토,,,,,11203,2,039-3108,青森県上北郡野辺地町大字有戸,141.189264,40.913949,0000-00-00,0000-00-00,0,1120303
1120304,1120304,吹越,フッコシ,Fukkoshi,吹越,훗코시,,,,,11203,2,039-4153,青森県上北郡横浜町字吹越,141.246552,41.022038,0000-00-00,0000-00-00,0,1120304
1120305,1120305,陸奥横浜,ムツヨコハマ,Mutsu-Yokohama,陆奥横滨,무쓰요코하마,,,,,11203,2,039-4133,青森県上北郡横浜町字舘の後,141.249757,41.086544,0000-00-00,0000-00-00,0,1120305
1120306,1120306,有畑,アリハタ,Arihata,有畑,아리하타,,,,,11203,2,039-4106,青森県上北郡横浜町字有畑,141.276421,41.131818,0000-00-00,0000-00-00,0,1120306
1120307,1120307,近川,チカガワ,Chikagawa,近川,지카가와,,,,,11203,2,035-0011,青森県むつ市大字奥内,141.279021,41.191687,0000-00-00,0000-00-00,0,1120307
1120308,1120308,金谷沢,カナヤサワ,Kanayasawa,金谷泽,가나야사와,,,,,11203,2,035-0011,青森県むつ市大字奥内,141.248432,41.228854,0000-00-00,0000-00-00,0,1120308
1120309,1120309,赤川,アカガワ,Akagawa,赤川,아카가와,,,,,11203,2,035-0044,青森県むつ市赤川町,141.209339,41.267829,0000-00-00,0000-00-00,0,1120309
1120310,1120310,下北,シモキタ,Shimokita,下北,시모키타,,,,,11203,2,035-0061,青森県むつ市下北町,141.18989,41.28288,0000-00-00,0000-00-00,0,1120310
1120311,1120311,大湊,オオミナト,Ominato,大凑,오미나토,,,,,11203,2,035-0084,青森県むつ市大湊新町,141.161772,41.280344,0000-00-00,0000-00-00,0,1120311
1120401,1120240,東能代,ヒガシノシロ,Higashi-Noshiro,东能代,히가시노시로,,,,,11204,5,016-0121,秋田県能代市鰄渕,140.065746,40.191579,0000-00-00,0000-00-00,0,1120401
1120402,1120402,能代,ノシロ,Noshiro,能代,노시로,,,,,11204,5,016-0831,秋田県能代市元町14-40,140.033084,40.206577,0000-00-00,0000-00-00,0,1120402
1120403,1120403,向能代,ムカイノシロ,Mukai-Noshiro,向能代,무카이노시로,,,,,11204,5,016-0014,秋田県能代市落合,140.039111,40.225669,0000-00-00,0000-00-00,0,1120403
1120404,1120404,北能代,キタノシロ,Kita-Noshiro,北能代,기타노시로,,,,,11204,5,016-0016,秋田県能代市竹生,140.033835,40.254138,0000-00-00,0000-00-00,0,1120404
1120405,1120405,鳥形,トリガタ,Torigata,鸟形,도리가타,,,,,11204,5,016-0011,秋田県能代市坂形,140.036931,40.271433,0000-00-00,0000-00-00,0,1120405
1120406,1120406,沢目,サワメ,Sawame,泽目,사와메,,,,,11204,5,018-2501,秋田県山本郡八峰町峰浜水沢,140.037824,40.295929,0000-00-00,0000-00-00,0,1120406
1120407,1120407,東八森,ヒガシハチモリ,Higashi-Hachimori,东八森,히가시하치모리,,,,,11204,5,018-2678,秋田県山本郡八峰町八森八森,140.032462,40.332086,0000-00-00,0000-00-00,0,1120407
